stationKey,stationKey2,name,lat,lng,radiusMeters,email,STD
1102,1102,PTG-คลังชุมพร,10.43757364,99.22090529,300,,
1202,1202,PTC-คลังชุมพร,10.43757364,99.22090529,300,,
1206,1206,PTC-คลังขอนแก่น,16.67851456,102.80198,300,,
1207,1207,PTC-คลังลำปาง,18.29467435,99.41481973,300,,
1208,1208,PTC-คลังหนองแค,14.35955794,100.8792244,300,,
1105262,1105262,หจก.พรนิภาเอนเนอร์จีสเตชั่น2,12.665306,102.209697,300,,
11000010,11000010,TPI โรงงานสระบุรี,14.648704,101.115643,300,,
11000021,11000021,หจก.วีตระการวิจิตรแก๊ส,13.673661,100.506468,300,,
11000143,11000143,หจก.ปทุมธานีสินทวีทรัพย์,14.06401857,100.5240237,300,,
11000154,11000154,หจก.วิไลยนุชออยล์,14.18510288,100.5556326,300,,
11000161,11000161,หจก.บุญประดับปิโตรเลียม,14.50061482,100.4365435,300,,
11000171,11000171,หจก.โปรกิมเฮง,14.8804254,100.4617437,300,,
11000177,11000177,หจก.นวทรัพย์ปิโตรเลียม,15.21400917,100.8242634,300,,
11000180,11000180,หจก.แสงประทีปออยล์,14.90392816,100.2263698,300,,
11000214,11000214,ภูบดินทร์,13.42303616,101.0017555,300,,
11000216,11000216,ชนะวรรณ์เดลต้าแท๊ก,13.354001,100.98266,300,,
11000228,11000228,จันทร์กระจ่างฟาร์ม,13.38059,101.19343,300,,
11000230,11000230,นาเริกปิโตรเลียม,13.41033692,101.2446475,300,,
11000236,11000236,มหัคฆภัณฑ์ปิโตรเลียม,13.297882,101.260175,300,,
11000251,11000251,บริษัทหนองเสือช่อปิโตรเลียม,13.287852,101.440845,300,,
11000256,11000256,ลูกค้า อัลวาอลูมิเนียม,13.016384,101.172897,300,,
11000265,11000265,บจก.พีแอลแก๊สแอนด์ออยล์,12.44000288,102.3025841,300,,
11000288,11000288,หจก.ทรัพย์สำรวยปิโตรเลียม,13.852944,101.072432,300,,
11000301,11000301,หจก.ส.รวมใจปราจีนบุรี,13.903006,101.171879,300,,
11000305,11000305,หจก.พงษ์ทรัพย์ออยล์,14.2934014,101.0388598,300,,
11000307,11000307,ห้างหุ้นส่วนจำกัด องครักษ์ปิโตรเลียม,14.117351,101.005711,300,,
11000311,11000311,ส.เสาวคนธ์เซอร์วิส,14.028162,102.682206,300,,
11000332,11000332,ประสาทไทยบริการ,15.55182747,102.6383214,300,,
11000364,11000364,หจก.วงศ์ทิพย์ปิโตรเลียม/วัชรชัยทิพย์โภชน์,14.740271,102.807512,300,,
11000365,11000365,วัลยาออยล์,14.73622513,102.9181101,300,,
11000366,11000366,ลำมาศแก๊ส,15.01249554,102.8472602,300,,
11000377,11000377,บุญพิเศษ,14.8439195,105.0486181,300,,
11000383,11000383,บ.จก.วี.เอส.นันทกิจออยล์,15.11801607,103.5738979,300,,
11000387,11000387,พีเอสแก๊สแอนด์ออยล์,15.368206,103.281992,300,,
11000389,11000389,นายฤทธิรณมีพันธ์,14.453513,103.423772,300,,
11000392,11000392,ยินดีวังโฮปิโตรเลียม,15.349862,104.913972,300,,
11000396,11000396,ยินดีเขมราฐปิโตรเลียม,16.0214511,105.2272015,300,,
11000405,11000405,หจก.เจริญรัตน์ออยล์,16.20151648,104.556995,300,,
11000406,11000406,หจก.ยิ่งเจริญออยล์,16.257411,104.517405,300,,
11000408,11000408,หจก.เล่าซุ่ยเซ้งลาดใหญ่,15.78501872,102.2010163,300,,
11000414,11000414,หจก.เทพสถิตวิวล์ปิโตรเลียม,15.38908317,101.4417808,300,,
11000415,11000415,หจก.รุ่งเรืองก้าวไกล,15.658976,101.511016,300,,
11000416,11000416,พัชราภรณ์บริการ,15.871704,104.640949,300,,
11000418,11000418,สมจิตรปิโตรเลียมเซอร์วิส,15.98187848,104.6351948,300,,
11000419,11000419,นายวุฒิพงษ์โสมรักษ์,15.88582668,104.9121421,300,,
11000432,11000432,ห้างหุ้นส่วนจำกัดอรุณบริการโนนสัง,16.989442,102.559788,300,,
11000433,11000433,หจก.เท่แอนด์ทีมบริการ,17.321439,102.004811,300,,
11000452,11000452,บจก.แล็บนุ่มโบว์,15.854065,102.337462,300,,
11000469,11000469,หจก.ภัทร44,17.444416,102.868759,300,,
11000475,11000475,หจก.บุญเอ็ง,17.11266812,103.0029881,300,,
11000481,11000481,หจก.ประเสริฐศรี,17.688655,102.462049,300,,
11000487,11000487,หจก.อั้งเจริญบริการ,17.76932089,102.176584,300,,
11000491,11000491,หจก.ละมัยพาณิชย์การ,16.944217,102.885563,300,,
11000498,11000498,ห้างหุ้นส่วนจำกัดกองเพ็ชรปิโตรเลียม,17.581031,101.729322,300,,
11000500,11000500,หจก.ศรีฟองด่านซ้ายบริการ,17.272503,101.145813,300,,
11000505,11000505,หจก.ไทยอนันต์ปากชมบริการ,18.01654223,101.883304,300,,
11000507,11000507,หจก.เจ.ออยล์ทรานสปอร์ต,17.127025,101.857163,300,,
11000512,11000512,หจก.ช.วิบูลย์หนองคายปิโตรเลียม,17.77549,102.767356,300,,
11000513,11000513,หจก.ทีแอลออยล์แอนเซอร์วิส,17.923896,102.816718,300,,
11000515,11000515,หจก.พิจิตรพาณิชย์ท่าบ่อบริการ,17.8399146,102.5835552,300,,
11000517,11000517,บี.ที.ออยล์2006,18.209662,103.182271,300,,
11000519,11000519,หจก.5วพานิชรุ่งเรือง.สาขา,16.2133863,103.3206778,300,,
11000523,11000523,หจก.เลิศนครบริการ,16.292871,103.295886,300,,
11000526,11000526,หจก.เดชพิมลปิโตรเลียม,16.17882,103.610428,300,,
11000528,11000528,สหกรณ์ครูร้อยเอ็ด,16.29533681,103.9949359,300,,
11000529,11000529,หจก.เดชพิมลปืโตรเลียม,16.05361,103.939967,300,,
11000531,11000531,หจก.มีดีออยล์,15.642402,103.372972,300,,
11000537,11000537,หจก.5วพาณิชรุ่งเรือง,16.30592745,103.483225,300,,
11000539,11000539,หจก.บุญค้ำคูณทรัพย์ปิโตรเลียม,16.7382156,104.103979,300,,
11000545,11000545,หจก.เพชรสุพรรณบริการ,17.336623,103.681108,300,,
11000548,11000548,หจก.พีเอสยูไนท์,17.510901,103.979058,300,,
11000553,11000553,หจก.ประมวลบริการ1997,17.439698,103.577537,300,,
11000568,11000568,หจก.สุมิตราออยล์,16.617187,104.460507,300,,
11000583,11000583,พีแอนด์เอ2010ปิโตรเลียม,19.35413255,99.19801757,300,,
11000586,11000586,พีทีวีปิโตรเลียม,18.86265771,98.72473651,300,,
11000598,11000598,สุทธเกียรติเซอร์วิส,18.602382,99.086366,300,,
11000599,11000599,หจก.ปิยะกมลปิโตรเลียม,17.80547793,98.94555761,300,,
11000600,11000600,หจก.ลี้เพิ่มพูนปิโตรเลียม,17.86712156,98.92663371,300,,
11000601,11000601,หจก.นาคราปิโตรเลียม2016,18.358151,98.810622,300,,
11000602,11000602,หจก.พรชัยบริการ,18.44093,99.094216,300,,
11000615,11000615,พงศ์ศิษฎ์ปิโตรเลี่ยม,18.821047,99.950438,300,,
11000628,11000628,หจก.เทพนฤมิตรแม่สะเรียง,18.14290433,97.94028658,300,,
11000632,11000632,อุตรดิตถ์พีทีออยล์,17.452524,100.140051,300,,
11000646,11000646,สหกรณ์การเกษตรวังชิ้นสาขานาพูนจำกัด,17.785638,99.770295,300,,
11000649,11000649,บจก.สตาร์ซัคเซ็ส,18.77751789,100.7732879,300,,
11000652,11000652,หจก.ขันเเก้วบริการ,19.181787,99.925406,300,,
11000654,11000654,คู่แข่งการปิโตรเลียม1994,19.472939,100.332373,300,,
11000655,11000655,หจก.คู่แข่งออย์ล2009,19.500521,100.280163,300,,
11000659,11000659,หจก.รัญจวญรุ่งเรืองทรัพย์,18.93193,100.237108,300,,
11000666,11000666,หจก.พิธิวัฒน์วงษ์ธค.57,20.24413217,99.6616996,300,,
11000669,11000669,พรีเมียร์จิรัฎฐ์ภัทรปิโตรเลียมพลัส,20.215438,100.408348,300,,
11000673,11000673,เมืองปายศรีมงคล,19.34921495,98.4352019,300,,
11000674,11000674,นิยมบริการปางมะผ้า,19.5162161,98.2541374,300,,
11000675,11000675,เทพพิทักษ์แม่ลา,18.33689559,97.91759109,300,,
11000681,11000681,ส.ธัญญปิโตรเลียม,15.755234,99.768722,300,,
11000684,11000684,ดาวนครสวรรค์,15.70741656,100.1009807,300,,
11000692,11000692,หจก.ทุ่งนารุ่งเรือง,15.312422,99.71807263,300,,
11000693,11000693,หจก.บ้านไร่สัมพันธ์,15.0847934,99.52601737,300,,
11000715,11000715,หจก.โชครับทรัพย์ปิโตรเลียม,17.44470698,99.72593664,300,,
11000721,11000721,หจก.ณัฐพลพรรณภัทรปิโตรเลียม,17.0568426,99.69932342,300,,
11000732,11000732,หจก.พิมทัตต์2014,16.90771,100.356097,300,,
11000746,11000746,ธีรพงษ์ปิโตรเลียม,16.57143828,100.6339011,300,,
11000749,11000749,หจก.พรพัฒน์แก๊สแอนด์ออยล์,16.883159,100.659746,300,,
11000757,11000757,อ.กิจเจริญปิโตรเลียม,16.21987652,100.4095025,300,,
11000758,11000758,บ.จก.บีเอสออยล์2016,16.093983,100.12415,300,,
11000759,11000759,เต็งเจริญทรัพย์ไพศาล,16.0971626,100.2557325,300,,
11000765,11000765,เจริญผลออยล์,13.55278827,99.87145445,300,,
11000769,11000769,หนูกุ้งนก,13.57797,99.829589,300,,
11000777,11000777,โชคถาวรปิโตรเลียม,14.010019,99.989468,300,,
11000779,11000779,พีแอนด์พีออยล์เซอร์วิส,13.968489,99.708227,300,,
11000782,11000782,หจก.ลิ้มจงเจริญแก๊ส,14.146861,99.708663,300,,
11000785,11000785,หจก.ห้วยกระเจาปิโตรเลียม,14.331672,99.733279,300,,
11000786,11000786,พุถ่องบริการ,14.55986649,98.76393588,300,,
11000789,11000789,อิสรินทร์การค้า,13.83461,99.412742,300,,
11000790,11000790,บ.รุ่งเจริญ,14.2428049,100.0459502,300,,
11000802,11000802,รัตนพันธ์ธุรกิจบจก.,13.83329698,100.0394532,300,,
11000804,11000804,สมพันธ์ปิโตรเลียม,13.8425578,100.046112,300,,
11000812,11000812,บ.จก.ภรันยู,14.02203723,100.0321256,300,,
11000815,11000815,กิจพัฒนาออยล์,14.0747421,99.98860759,300,,
11000836,11000836,หจก.ศรีพร้อมพงษ์,8.081734271,99.88865958,300,,
11000840,11000840,หจก.พีจีออยล์march58กฤษณา,8.57136,99.470742,300,,
11000843,11000843,หจก.ส.เกียรติอ้าน,8.534014,98.296186,300,,
11000851,11000851,ทรัพย์โสภาการปิโตรเลียม,8.605322,98.969652,300,,
11000852,11000852,ระนองมินิปั๊ม,9.953933,98.613173,300,,
11000853,11000853,พี.ที.แสงฟ้าออยล์,10.504678,98.823323,300,,
11000855,11000855,ภูมิภัทรปิโตรเลียม,9.609508786,98.54179028,300,,
11000885,11000885,เคทีพีปิโตรเลียม,7.120698279,100.5353695,300,,
11000888,11000888,หจก.เปี่ยมทรัพย์ปิโตรเลียม,6.983849244,100.375891,300,,
11000889,11000889,หจก.สงขลาแก้วสุขปิโตรเลียม,6.890505655,100.7229093,300,,
11000891,11000891,พีแอนด์ซีปิโตรเลียม,7.105114022,100.3322121,300,,
11000892,11000892,บ.จก.เคซีดีปิโตรเลียม,6.959069957,100.4741015,300,,
11000899,11000899,บ.จก.ซีเคไฟว์เทรดดิ้ง,7.3226074,100.488381,300,,
11000900,11000900,ยิ่งทรัพย์เจริญ,7.555130928,99.56704951,300,,
11000901,11000901,พัทลุงปัญจพล,7.6885089,100.0053883,300,,
11000904,11000904,บจก.ซีวาย.แก๊สแอนด์ออยล์,6.68887,101.557804,300,,
11000906,11000906,หจก.สุริยาเอ็นเตอร์ไพรส์,6.720765363,101.2863562,300,,
11000908,11000908,เบตงรัตนะบริการ,5.774593306,101.0803143,300,,
11000973,11000973,จิตติยาพัฒนา,14.33913669,100.4180179,300,,
11000987,11000987,บจก.พนมชัยกรุ๊ป,13.677092,101.427361,300,,
11001016,11001016,หจก.เคพีพีเอนกบุญย์ปิโตรเลียม,13.90913699,101.9575801,300,,
11001041,11001041,มนตรีทิพย์,15.09753751,104.1414049,300,,
11001045,11001045,ว่องเจริญปิโตรเลียม,18.02211086,103.6925304,300,,
11001066,11001066,พีทีจีออยล์,16.2744429,100.2577795,300,,
11001070,11001070,หจก.ซิ้มเจริญปิโตรเลียม,19.06355741,98.95782731,300,,
11001071,11001071,บริษัทปิโตรเซอร์วิสจำกัด,18.736438,99.142608,300,,
11001093,11001093,หจก.ทุ่งข่าออยล์,6.658805,100.696113,300,,
11001110,11001110,หจก.วี.อาร์.จีแก๊ส,13.892461,99.797807,300,,
11001146,11001146,สหกรณ์การเกษตรเมืองเชียงรายสาขาห้วยสัก,19.788314,99.909005,300,,
11001147,11001147,สหกรณ์การเกษตรเมืองเชียงรายสาขาบัวสลี,19.794625,99.748018,300,,
11001165,11001165,สหกรณ์การเกษตรเมืองเชียงรายสาขานางแล,19.99827549,99.86619787,300,,
11001166,11001166,สหกรณ์การเกษตรเมืองเชียงรายสาขาเวียงกือนา,19.788453,99.908923,300,,
11001167,11001167,สหกรณ์การเกษตรเมืองเชียงรายสาขาสันทราย,19.85364044,99.81265339,300,,
11001180,11001180,หจก.สุริวงศ์ปิโตรเลียม,16.7719321,100.1626389,300,,
11001204,11001204,หจก.ศรีสมหวัง,15.315436,103.924469,300,,
11001210,11001210,ทวีคูณไทยปิโตรเลียม,15.33809332,103.2801982,300,,
11001240,11001240,หจก.เอ็ม.พี.พีพาวเวอร์ออยล์,13.54543072,102.1584626,300,,
11001241,11001241,บจก.สยามยิ่งเจริญแก๊ส,14.23391895,99.06281978,300,,
11001242,11001242,ห้างหุ้นส่วนจำกัด๙กิจปิโตรเลียม,16.611319,100.448616,300,,
11001252,11001252,ห้างหุ้นส่วนจำกัดทรัพย์หวองเจริญพานิช,14.377929,99.51783,300,,
11001257,11001257,หจก.เจริญรุ่งเรืองออยล์,14.275036,100.892154,300,,
11001265,11001265,ห้างหุ้นส่วนจำกัดติรคุณบูรณะ,13.72134914,99.78786949,300,,
11001282,11001282,บริษัทกฤษณะปิโตรเลียมจำกัด,12.865937,100.969471,300,,
11001304,11001304,ห้างหุ้นส่วนจำกัดบุญเลิศพาณิชย์,15.32959,105.479862,300,,
11001340,11001340,ห้างหุ้นส่วนจำกัดเรืองภัทร,14.517267,105.242736,300,,
11001342,11001342,บจก.ใจผ่องใสปิโตรเลียมแอนด์เซอร์วิส,14.806221,99.713617,300,,
11001366,11001366,หจก.เทพพิทักษ์แม่ลา,19.242675,97.97156,300,,
11001467,11001467,ห้างหุ้นส่วนจำกัดเค.อาร์.ออยล์,10.121401,98.898585,300,,
11001490,11001490,บริษัทซี.เค.วาย.ปิโตรเลียม,13.53891,99.80685,300,,
11001491,11001491,ห้างหุ้นส่วนจำกัดปิยะพัทธ์,15.853935,104.788122,300,,
11001493,11001493,หจก.กันต์ภรณ์,14.196443,101.221345,300,,
11001558,11001558,หจก.สุขสุนทร2018,16.738604,102.829104,300,,
11001662,11001662,บริษัทธัชชญา2018จำกัด,16.97942,102.290972,300,,
11001665,11001665,ห้างหุ้นส่วนจำกัดอุไรวรรณโพธิ์ตาก,17.835815,102.419011,300,,
11001676,11001676,ห้างหุ้นส่วนจำกัดธีระพงษ์ยิ่งเจริญ,15.756333,104.469928,300,,
11001686,11001686,บริษัทพราวด์เอ็นเนอร์ยี่จำกัด,13.787554,100.426099,300,,
11001731,11001731,ห้างหุ้นส่วนจำกัดบุญเสริมปิโตรเลียม,14.610698,104.645734,300,,
11001733,11001733,บริษัทสตาร์ปิโตรเลียมพลัสจำกัด(เจ้าปลุก),14.577683,100.525185,300,,
11001738,11001738,บริษัทสตาร์ปิโตรเลียมพลัสจำกัดสาขา5ตาก,16.946798,99.125116,300,,
11001739,11001739,บริษัทสตาร์ปิโตรเลียมพลัสจำกัดสาขา4สนามบินตาก,16.937216,99.123084,300,,
11001748,11001748,บริษัทสตาร์ปิโตรเลียมพลัสจำกัด(เขาจีนแล),14.803286,100.75459,300,,
11001798,11001798,ห้างหุ้นส่วนจำกัดจีแอนด์จีอู่ทอง,14.257223,99.906296,300,,
11001804,11001804,ห้างหุ้นส่วนจำกัดเดื่อศรีวิชัยค้า,17.496437,103.731023,300,,
11001820,11001820,บริษัทชนิตา35จำกัด,12.953357,100.993291,300,,
11001835,11001835,นางสาวอัจฉราภรณ์สุวรรณรมย์,15.900722,105.283862,300,,
11001839,11001839,หจก.สาธิตเซอร์วิส2545,13.21469,102.174985,300,,
11001851,11001851,ห้างหุ้นส่วนจำกัดตันติกรเจริญปิโตร,18.139494,99.472253,300,,
11001869,11001869,ห้างหุ้นส่วนจำกัดอิทธิพัทธ์น้ำมัน,7.062447,100.178362,300,,
11001871,11001871,หจก.ธัญชนกเพิ่มทรัพย์ออยล์,18.117686,98.888942,300,,
11001874,11001874,ห้างหุ้นส่วนจำกัดสุริวงษ์ออยล์,13.613153,100.097793,300,,
11001881,11001881,ห้างหุ้นส่วนจำกัดเอ็นทีแคปปิตอลกรุ๊ป,13.039478,102.382009,300,,
11001897,11001897,ห้างหุ้นส่วนจำกัดสำรวจแร่,15.778097,100.606645,300,,
11001904,11001904,ห้างหุ้นส่วนจำกัดวายเอ็มวายออยล,14.832831,104.678832,300,,
11001908,11001908,ห้างหุ้นส่วนจำกัดกิจสหชัยชาญ,16.481056,100.484172,300,,
11001921,11001921,ห้างหุ้นส่วนจำกัดเอ็มเอ็มปิโตรเลียม,17.107666,104.604707,300,,
11001923,11001923,บริษัทเอ็นโอเคเพ้นท์แอนด์,17.37045,104.09418,300,,
11001945,11001945,ห้างหุ้นส่วนจำกัดพรมเกตุปิโตรเลียม,15.960053,104.038474,300,,
11001947,11001947,ห้างหุ้นส่วนจำกัดเอ.พี.ปิโตรเลียม,14.615561,100.729987,300,,
11002001,11002001,หจก.ปัณณกันต์เซอร์วิส,14.921465,100.368983,300,,
11002053,11002053,สหกรณ์การเกษตรวังชิ้นสาขาป่าสัก,17.901323,99.60378,300,,
11002054,11002054,สหกรณ์การเกษตรวังชิ้นจำกัด,17.905896,99.602665,300,,
11002055,11002055,ห้างหุ้นส่วนจำกัดแสงประทีปออยล์,14.904957,100.193129,300,,
11002056,11002056,หจก.ศิริอนงค์ก่อสร้าง,17.566707,102.289787,300,,
11002067,11002067,บริษัทหนองบอนแดงปิโตรเลียมจำกัด,13.345381,101.151934,300,,
11002083,11002083,ห้างหุ้นส่วนจำกัดอรทัยโพธิ์ไทร,15.814727,105.244805,300,,
11002084,11002084,ห้างหุ้นส่วนจำกัดช.ปิโตรเลียมพิษณุโลก,16.755724,100.200885,300,,
11002085,11002085,บริษัท สุขสมบูรณ์น้ำมันพืช จำกัด,13.157992,101.332729,300,,
11002093,11002093,ห้างหุ้นส่วนจำกัดเกิดมารุ่งเรือง,15.112718,100.519604,300,,
11002096,11002096,บริษัทดีเดย์ปิโตรเลียมจำกัด,18.917878,98.944026,300,,
11002097,11002097,ห้างหุ้นส่วนจำกัดประสิทธิ์ศรีสุข,15.160411,103.381718,300,,
11002107,11002107,บริษัททองเจริญกิจปิโตรเลียมจำกัด,17.343663,102.382409,300,,
11002115,11002115,ห้างหุ้นส่วนจำกัดบุญชูออยล์,13.667826,100.192624,300,,
11002119,11002119,หจก.ป.ประเสริฐออยล์,15.343024,103.533749,300,,
11002129,11002129,ห้างหุ้นส่วนจำกัดเอ็นอาร์กรุ๊ป10,16.296775,103.921926,300,,
11002133,11002133,บริษัท99พี.เจ.เอสนครนายกแก๊สจำกัด,14.179181,101.242027,300,,
11002145,11002145,ห้างหุ้นส่วนจำกัดเพิ่มทรัพย์ออยล์,7.792691,99.959955,300,,
11002160,11002160,ห้างหุ้นส่วนจำกัดสตางค์ฟาร์ม,13.828024,101.974926,300,,
11002163,11002163,ห้างหุ้นส่วนจำกัดฐปนวัฒน์ปิโตรเลียม,17.191212,104.7829019,300,,
11002185,11002185,หจก.พอร์เตอร์ปิโตรเลียม,15.049432,105.278333,300,,
11002186,11002186,ห้างหุ้นส่วนจำกัดเอสเจพีปิโตรเลียม,13.945263,99.294915,300,,
11002188,11002188,ห้างหุ้นส่วนจำกัดบุญช่วยปิโตรเลียม,17.870861,99.062904,300,,
11002189,11002189,ห้างหุ้นส่วนจำกัดพีทีเคปิโตรเลียม,14.706794,103.85761,300,,
11002194,11002194,ห้างหุ้นส่วนจำกัดรุ่งเรืองปิโตรเลียม,14.761078,104.198458,300,,
11002214,11002214,ห้างหุ้นส่วนจำกัดส.เจริญสุขปิโตรเลียม,16.500389,100.500194,300,,
11002247,11002247,ห้างหุ้นส่วนจำกัดพีทีเขามีเกียรติ,6.770801,100.504748,300,,
11002258,11002258,ห้างหุ้นส่วนจำกัดอุดมสุขออยล์สเตชั่น,18.31596,98.66195,300,,
11002266,11002266,ห้างหุ้นส่วนจำกัดบุญพิศาลปิโตรเลียม,7.34398,100.331283,300,,
11002273,11002273,ห้างหุ้นส่วนจำกัดตะโละซูแมออยล์เซอร์วิส,6.43614,101.278558,300,,
11002289,11002289,หจก.บี.พี.ปิโตรเลียม,7.385103,99.979491,300,,
11002293,11002293,บจก.สบาย2014จำกัด,11.431212,99.55444,300,,
11002297,11002297,บริษัทชาลีปิโตรเลียมจำกัด,15.071253,102.206979,300,,
11002306,11002306,ห้างหุ้นส่วนจำกัดสุวิทย์ปิโตรเลียม,15.932804,102.023965,300,,
11002324,11002324,นายอุทัยแพนพัฒน์,17.688634,103.728378,300,,
11002358,11002358,บจก.พีเอสแอลออยล์,12.438741,102.302394,300,,
11002410,11002410,หจก.ชูไสวเอ็นเนอยี่,12.777907,101.327935,300,,
11002452,11002452,หจก.เจริญทัยออยล์,15.56459408,105.094787,300,,
11002482,11002482,บจก.ดอนยอออยล์,13.974353,100.10675,300,,
11002492,11002492,หจก.วี.แคร์แอลพีจีสำนักงานใหญ่,17.637832,100.087323,300,,
11002513,11002513,หจก.มิตรภาพภิญโญ,14.9763,102.052626,300,,
11002522,11002522,หจก.ศศิกานต์รุ่งเรืองปิโตรเลียม,14.346598,100.845753,300,,
11002523,11002523,หจก.รุ่งเรืองปิโตรเลียม2020,14.761078,104.198458,300,,
11002534,11002534,บริษัทรอดเงินจำกัด,8.260016,100.098226,300,,
11002541,11002541,หจก.เทวินปิโตรเลียม,17.278032,103.992036,300,,
11002555,11002555,หจก.ภูมิพัฒน์เค.กรุ๊ป,8.571709,99.948884,300,,
11002564,11002564,หจก.สกุลแสงปิโตเลียม,6.7355366,100.9409674,300,,
11002638,11002638,บริษัทพีซีออยล์กรุ๊ป,18.184499,98.617336,300,,
11002651,11002651,หจก.โชตเพิ่มพูนทรัพย์แอลพีจี,17.544518,100.188669,300,,
11002685,11002685,ทรัพย์เจริญปิโตรเลียม,15.486315,103.982656,300,,
11002726,11002726,หจก.อ.อนุวัฒน์ปิโตรเลี่ยม,12.849374,101.399271,300,,
11002758,11002758,ห้างหุ้นส่วนจำกัดเอส.พี.เซอร์วิส2,8.7769006,99.3628345,300,,
11002782,11002782,หจก.ตั้งตรงปิโตรเลียมพลัส,18.8515639,100.4462953,300,,
11002789,11002789,หจก.ส.สมพงษ์วังไหปิโตรเลียม,17.283204,101.853055,300,,
11002804,11002804,บจก.เพชรศิริอนันต์ออยล์,13.63662892,100.0700005,300,,
11002905,11002905,ห้างหุ้นส่วนจำกัดโชติธนวินท์,14.609449,103.558083,300,,
11002940,11002940,หจก.ระฟ้าพลังงาน,13.67983,102.494007,300,,
11002954,11002954,หจก.ศิริศักดิ์ปิโตรเลียม,15.785017,105.002699,300,,
11002959,11002959,หจก.พรนิภาเอนเนอร์จีสเตชั่น,12.93398,102.066416,300,,
11002966,11002966,ห้างหุ้นส่วนจำกัดนิติธรออยล์,13.937325,101.266943,300,,
11002967,11002967,หจก.สองพี่น้องบริการ2021,15.01001,101.925061,300,,
11003002,11003002,บจก.เอสเอสพีออยล์,13.233731,101.222842,300,,
11003008,11003008,หจก.ทองพัฒน์ปิโตรเลียม,8.571753,99.948651,300,,
11003009,11003009,บจก.โชคดีออยล์จำกัด,14.50443137,100.5211698,300,,
11003071,11003071,ห้างหุ้นส่วนจำกัดเจแอนด์พีปิโตรเลียม,16.707058,101.290283,300,,
11003102,11003102,ห้างหุ้นส่วนจำกัดขาณุมงคลออยล์,16.010623,99.794562,300,,
11003109,11003109,ห้างหุ้นส่วนจำกัดรัตนสมบูรณ์ปิโตร,17.795628,100.115446,300,,
11003116,11003116,บริษัทพรพัฒน์ปิโตรเลียมจำกัด,16.874831,100.664843,300,,
11003143,11003143,บริษัทดีพฤกษ์ธรรมจำกัด,13.71835657,100.2973868,300,,
11003192,11003192,บริษัทอโนออยล์จำกัด,16.371573,102.167552,300,,
11003203,11003203,ห้างหุ้นส่วนจำกัดมงคลโชคอนันกิจ,15.317076,105.043181,300,,
11003210,11003210,นายปริญญาเสนานอก,14.718913,102.5605473,300,,
11003213,11003213,ห้างหุ้นส่วนจำกัดอุดมทรัพย์ออยล์,17.054278,100.811389,300,,
11003224,11003224,หจก.พิชัยพัฒน์,14.638247,102.697941,300,,
11003225,11003225,บจก.8อินฟินิตี้พาวเวอร์,12.786289,101.664918,300,,
11003227,11003227,บจก.อนันตาอินดัสทรี,18.250492,99.526563,300,,
11003281,11003281,หจก.ฉ.สามร้อยยอดบริการ,12.20003,99.856641,300,,
11003282,11003282,ห้างหุ้นส่วนจำกัดสุริยาบิสซิเนส,6.606501,101.304671,300,,
11003310,11003310,ห้างหุ้นส่วนจำกัดพีจีปิโตรเลียม,15.84538,102.76087,300,,
11003318,11003318,ห้างหุ้นส่วนจำกัดพรรณธิณีปิโตรเลียม,15.007644,104.763363,300,,
11003333,11003333,ห้างหุ้นส่วนจำกัดวีอาร์พีปิโตรเลียม,19.709694,99.144033,300,,
11003365,11003365,หจก.รุ่งเรืองวิทย์นครศรีธรรมราช,7.385982,99.979346,300,,
11003376,11003376,ห้างหุ้นส่วนจำกัดพีพีเอเอปิโตรเลียม,17.116115,104.356271,300,,
11003379,11003379,บริษัทสุขใจสเตชั่นจำกัด,19.459475,98.964823,300,,
11003382,11003382,บริษัทสมบูรณ์ปิโตรเลียมจำกัด,13.891998,99.755761,300,,
11003391,11003391,ห้างหุ้นส่วนจำกัดบ.พาณิชย์,17.2172574,102.2285413,300,,
11003403,11003403,บจก.ยอดจากปิโตรเลียม,7.117801,100.226551,300,,
11003404,11003404,หจก.ทีเอ็นพีปิโตรเลียม,15.155947,104.190848,300,,
11003410,11003410,ห้างหุ้นส่วนจำกัดฤทธิ์อนันต์ปิโตรเลียม,19.53982,99.48945,300,,
11003413,11003413,บจก.พัฒนากาญจน์555,14.059592,99.474708,300,,
11003415,11003415,หจก.เนตรสกลปิโตรเลียม2020,17.156082,104.060276,300,,
11003491,11003491,บริษัทอมรปิโตรเลียมจำกัด,12.740667,101.583612,300,,
11003495,11003495,บริษัทเอ็นซี63จำกัด,18.579032,99.041799,300,,
11003500,11003500,หจก.จิรวัชร์บริการปั้มนาแพง,16.931557,102.288163,300,,
11003511,11003511,หจก.เพชรชะอำปิโตรเลียม,12.82701,99.985133,300,,
11003520,11003520,ห้างหุ้นส่วนจำกัดวรรณศักดิ์ปิโตรเลียม,15.228475,105.178513,300,,
11003530,11003530,หจก.บ้านไร่มงคลออยล์,17.318178,102.800621,300,,
11003538,11003538,บจก.อโนออยล์จำกัด,16.0095746,101.6839886,300,,
11003553,11003553,หจก.เอแอนด์เอสไอพาวเวอร์,20.049665,99.352645,300,,
11003565,11003565,หลักธรรม,14.219545,100.016026,300,,
11003614,11003614,บจก.จงเจริญออยล์,13.606374,100.459262,300,,
11003616,11003616,ต้นมะขามปิโตรเลียม,10.6057153,99.27070523,300,,
11003617,11003617,หจก.ปุณวัชรก่อสร้าง,12.722973,101.169726,300,,
11003620,11003620,บริษัททรัพย์เข็มทองแก๊สจำกัด,14.015995,99.924065,300,,
11003659,11003659,บริษัทชัยพรโฮลดิ้งจำกัด,14.321702,99.995533,300,,
11003667,11003667,หจก.เอ็นเอ็นซีโกลบอล,14.809187,100.597429,300,,
11003735,11003735,หจก.พีทีธานีปิโตรเลียม,14.880745,104.38155,300,,
11003775,11003775,บริษัทซิเมนต์ออลโปรดัคท์จำกัด,16.489606,102.887149,300,,
11003777,11003777,บริษัทลักขณาเพาเวอร์จำกัด,13.670139,101.200278,300,,
11003778,11003778,บริษัทประจันตคามปิโตรเลียมจำกัด,14.07575,101.513709,300,,
11003780,11003780,บริษัทสตาร์คอร์ปอเรชั่นแม่ปิง,18.765692,99.005912,300,,
11003783,11003783,หจก.กิตญาดาปิโตรเลียม,16.749128,98.617932,300,,
11003809,11003809,หจก.ศิริศักดิ์ทรานสปอร์ต,15.482512,105.26091,300,,
11003852,11003852,หจก.ทุ่งหัวช้างปิโตรเลียม,17.988997,99.0325,300,,
11003876,11003876,บริษัทอุบลโฮลดิ้งจำกัด,17.951259,102.588662,300,,
11003891,11003891,หจก.พ.สมหมายบริการ,14.707982,104.664937,300,,
11003919,11003919,หจก.ศรีมงคลนัมเบอร์วันปิโตรเลียม,13.541818,99.446766,300,,
11003934,11003934,ห้างหุ้นส่วนจำกัดครุฑไทยปิโตรเลียม,14.97972991,99.63638177,300,,
11003940,11003940,หจก.กิมชุนพนมไพรออยล์,15.180073,103.319339,300,,
11003961,11003961,บริษัทส.สมบูรณ์เทรดดิ้งปิโตรเลียม,7.936309,100.215079,300,,
11003962,11003962,บริษัทอามานปิโตรเลียมสาขา1จำกัด,6.48818,101.310314,300,,
11003963,11003963,หจก.ชในภูออยล์,16.6762556,102.32801,300,,
11003976,11003976,บจก.เสริมทรัพย์ปิโตรเลียม,14.6093925,99.9124819,300,,
11003983,11003983,บริษัทโชควสุชนม์จำกัด,16.769633,101.03834,300,,
11003994,11003994,หจก.สหธรรมรุ่งโรจน์,17.166574,102.572471,300,,
11004015,11004015,บริษัทมารวยสถานีบริการน้ำมันจำกัด,13.847142,100.920291,300,,
11004070,11004070,หจก.พงษ์ศกรองครักษ์ปิโตรเลียม,14.11125,101.01827,300,,
11004078,11004078,หจก.อาร์เอ็นเซ็นเตอร์,15.276123,105.260537,300,,
11004087,11004087,PTF บจก.แอลทีเอชไทย มาร์เก็ตติ้ง,12.773054,102.093146,300,,
11004101,11004101,บจก.ซี.วาย.ปิโตรพาวเวอร์,6.826859,101.164435,300,,
11004115,11004115,หจก.ทรัพย์ฐวีเกียรติบริการ,17.937217,102.234685,300,,
11004135,11004135,หจก.ปิยะพัทธ์ปิโตรเลียม,16.390237,104.568252,300,,
11004151,11004151,หจก.หลักเขตออยล์,14.8206909,103.1548797,300,,
11004166,11004166,ห้างหุ้นส่วนจำกัดศรีแสง1982,16.988944,101.904133,300,,
11004217,11004217,หจก.โกลเด้นซันเอนเนอร์จี,16.964886,100.001333,300,,
11004270,11004270,หจก.โชครับทรัพย์ปิโตรเลียม2แม่สิน,17.681787,99.704765,300,,
11004274,11004274,หจก.ซีเอชเอ็นการโยธา,7.54781,100.08254,300,,
11004286,11004286,หจก.สิริเจริญปิโตเลียม,17.393883,101.565488,300,,
11004308,11004308,ห้างหุ้นส่วนจำกัดสะเตงปิโตรเลียม,6.521244,101.267789,300,,
11004407,11004407,บริษัทระวีวรรณปิโตรเลียมจำกัด,16.019461,100.542888,300,,
11004527,11004527,PTF หจก.สงวนสินสเตชั่น,12.468573,102.137162,300,,
11004588,11004588,บริษัท พัชรปิโตรเลียม,16.104152,101.884881,300,,
11004694,11004694,บริษัท อีดีซี เอ็นเนอยี จำกัด,16.26395,104.412552,300,,
11004702,11004702,PTF ส.ปิโตรเลียม,13.849392,100.885638,300,,
11004711,11004711,ฮั้วเฮงออยล์,15.506674,101.820191,300,,
11004726,11004726,พูลทรัพย์ กรุ๊ป(ลูกค้า),20.117237,100.090307,300,,
11004809,11004809,รักษาดี ปิโตเลียม,14.292235,100.820048,300,,
11004823,11004823,PTF หจก.กิจรุ่งเรือง,12.622523,101.96444,300,,
11005047,11005047,บจ.เดอะวัน ออยล์,15.932818,102.024019,300,,
11005080,11005080,บริษัท ดีอาร์ เอนเนอร์ยี่ จำกัด,14.58381,101.013779,300,,
11005286,11005286,ห้างหุ้นส่วนจำกัด ไทยพืชผลปิโตรเลียม,15.566918,101.949558,300,,
11006002,11006002,Ptf เพชรสายมิตร,13.935857,101.6994,300,,
1173 ตำบล ป่าซาง อำเภอ เวียงเชียงรุ้ง เชียงราย 57210,1173 ตำบล ป่าซาง อำเภอ เวียงเชียงรุ้ง เชียงราย 57210,ลูกค้า ตรีสกุล,20.056027,100.134523,300,,
คลังก๊าซแอตลาส พิจิตร,คลังก๊าซแอตลาส พิจิตร,Atlas Gas Storage PhiChit,16.57827497,100.1590133,300,,
คลังแก๊ส Atlas Energy (PT) จังหวัดพัทลุง,คลังแก๊ส Atlas Energy (PT) จังหวัดพัทลุง,คลังแก๊ส Atlas Energy (PT) จังหวัดพัทลุง,7.305364,100.149633,300,,
รวีกาญจน์ (ลูกค้า),รวีกาญจน์ (ลูกค้า),รวีกาญจน์ (ลูกค้า),18.91912,98.995511,300,,
ลูกค้า SPK กรีนพาวเวอร์,ลูกค้า SPK กรีนพาวเวอร์,ลูกค้า SPK กรีนพาวเวอร์,14.024105,100.275456,300,,
ลูกค้าไทยไพบูลย์ บ้านโป่ง,ลูกค้าไทยไพบูลย์ บ้านโป่ง,ลูกค้าไทยไพบูลย์ บ้านโป่ง,13.800685,99.938861,300,,
หจก. พระลักษณ์ปิโตรเลียม,หจก. พระลักษณ์ปิโตรเลียม,หจก. พระลักษณ์ปิโตรเลียม,13.514531,99.746017,300,,
หจก.เทพนฤมิตรแม่สะเรียง(สิงห์เจริญทรัพย์),หจก.เทพนฤมิตรแม่สะเรียง(สิงห์เจริญทรัพย์),หจก.เทพนฤมิตรแม่สะเรียง(สิงห์เจริญทรัพย์),18.075543,97.92126,300,,
ห้างหุ้นส่วนจำกัด นิวพอร์ท จันทบุรี,ห้างหุ้นส่วนจำกัด นิวพอร์ท จันทบุรี,ห้างหุ้นส่วนจำกัด นิวพอร์ท จันทบุรี,12.664019,102.007947,300,,
ตำบล ท่าช้าง อำเภอ สว่างวีระวงศ์ อุบลราชธานี 34190,ตำบล ท่าช้าง อำเภอ สว่างวีระวงศ์ อุบลราชธานี 34190,คลังแก๊ส Atlas Energy (PT) จังหวัดอุบลราชธานี,15.208481,104.969208,300,,
ตำบลสำโรง อำเภอปักธงชัย นครราชสีมา ประเทศไทย,ตำบลสำโรง อำเภอปักธงชัย นครราชสีมา ประเทศไทย,บริษัท เอ.ซี.เอส.ฟาร์ม2,14.64885768,102.0831613,300,,
กิจการร่วมค้า พีแอลสีม่วง,กิจการร่วมค้า พีแอลสีม่วง,กิจการร่วมค้า พีแอลสีม่วง,13.767948,100.592,300,,
สรรพยา3,สรรพยา3,สรรพยา3,15.150355,100.25195,300,,
บ.อึ้งเจริญพูลทรัพย์,บ.อึ้งเจริญพูลทรัพย์,บ.อึ้งเจริญพูลทรัพย์,15.22033,101.127018,300,,
บจก. ทริปเปิ้ล เอ็น ดี ปิโตรเลียม,บจก. ทริปเปิ้ล เอ็น ดี ปิโตรเลียม,บจก. ทริปเปิ้ล เอ็น ดี ปิโตรเลียม,13.925215,100.251007,300,,
บจก. เล่าฮั่วเชียง,บจก. เล่าฮั่วเชียง,บจก. เล่าฮั่วเชียง,13.684472,100.548948,300,,
บริษัท ซิลเวอร์ 929 จำกัด,บริษัท ซิลเวอร์ 929 จำกัด,บริษัท ซิลเวอร์ 929 จำกัด,13.860564,100.391318,300,,
บริษัท อินทรี ซุปเปอร์บล๊อก จำกัด (สาขาราชบุรี),บริษัท อินทรี ซุปเปอร์บล๊อก จำกัด (สาขาราชบุรี),บริษัท อินทรี ซุปเปอร์บล๊อก จำกัด (สาขาราชบุรี),13.556672,99.725708,300,,
บริษัท ถูกใจ จำกัด,บริษัท ถูกใจ จำกัด,บริษัท ถูกใจ จำกัด,12.617179,102.136577,300,,
บริษัท พนัสโพลทรี กรุ๊ป จำกัด - ฟาร์มเขาอำนวยสุข ตำบลหนองเหียง อำเภอพนัสนิคม ชลบุรี ประเทศไทย,บริษัท พนัสโพลทรี กรุ๊ป จำกัด - ฟาร์มเขาอำนวยสุข ตำบลหนองเหียง อำเภอพนัสนิคม ชลบุรี ประเทศไทย,ฟาร์มเขาอำนวยสุข,13.44896178,101.3343602,300,,
บริษัท แอลพีจี พระยาตรัง จำกัด,บริษัท แอลพีจี พระยาตรัง จำกัด,บริษัท แอลพีจี พระยาตรัง จำกัด,12.621854,102.071303,300,,
นครนายก 7,นครนายก 7,นครนายก 7,14.240787,101.133914,300,,
พยัคฆ์ขนส่งเชียงราย,พยัคฆ์ขนส่งเชียงราย,พยัคฆ์ขนส่งเชียงราย,19.826136,99.769461,300,,
โชคประทิน (ลูกค้า),โชคประทิน (ลูกค้า),โชคประทิน (ลูกค้า),13.960243,100.004327,300,,
ไทยเพียรเจริญ,ไทยเพียรเจริญ,ไทยเพียรเจริญ,13.53955,99.808283,300,,
เขาย้อย5,เขาย้อย5,เขาย้อย5,13.284962,99.821793,300,,
เดอะโกลเด้นออยล์,เดอะโกลเด้นออยล์,เดอะโกลเด้นออยล์,14.038167,99.629469,300,,
แซดเอชยู ทรานซพอร์ท,แซดเอชยู ทรานซพอร์ท,แซดเอชยู ทรานซพอร์ท,14.147611,100.643361,300,,
ZS001,S001,PTC-STA-สิชล,9.0616254,99.8365737,300,ptc003sc@pt.co.th,
ZS002,S002,PTC-STA-สระบุรี3,14.572604,100.90206,300,ptc004sr@pt.co.th,
ZS003,S003,PTC-STA-วิเศษชัยชาญ,14.596664,100.348941,300,ptc005wc@pt.co.th,
ZS004,S004,PTC-STA-เกาะสมุย,9.45576,99.993436,300,ptc006sm@pt.co.th,
ZS005,S005,PTC-STA-ลาดกระบัง,13.720707,100.794608,300,ptc007lb@pt.co.th,
ZS006,S006,PTC-STA-ตาก3,16.803968,99.0445,300,ptc009ta@pt.co.th,
ZS007,S007,PTC-STA-ชุมพร,10.552834,99.251368,300,ptc010cp@pt.co.th,
ZS008,S008,PTC-STA-บางปลาม้า2,14.393029,100.170874,300,ptc011bm@pt.co.th,
ZS010,S010,PTC-STA-พาน3,19.599789,99.749322,300,ptc013ph@pt.co.th,
ZS011,S011,PTC-STA-ภูเขียว2,16.316649,102.196655,300,ptc014pk@pt.co.th,
ZS012,S012,PTC-STA-ขุขันธ์2,14.730273,104.199657,300,ptc015kk@pt.co.th,
ZS013,S013,PTC-STA-วังชิ้น,17.912987,99.602715,300,ptc016wc@pt.co.th,
ZS014,S014,PTC-STA-บ้านโป่ง2,13.828188,99.877978,300,ptc017bp@pt.co.th,
ZS015,S015,PTC-STA-ศรีราชา2,13.075682,101.018054,300,ptc018sc@pt.co.th,
ZS016,S016,PTC-STA-เชียรใหญ่2,8.142702,100.126575,300,ptc019cy@pt.co.th,
ZS017,S017,PTC-STA-หางดง5,18.723694,98.938621,300,ptc020hd@pt.co.th,
ZS018,S018,PTC-STA-ศรีสำโรง2,17.153234,99.854417,300,ptc021sr@pt.co.th,
ZS019,S019,PTC-STA-ศรีสะเกษ,15.107815,104.329808,300,ptc022sk@pt.co.th,
ZS020,S020,PTC-STA-บึงสามพัน,15.778386,101.006592,300,ptc023bp@pt.co.th,
ZS021,S021,PTC-STA-ปากท่อ,13.404547,99.876733,300,ptc024pt@pt.co.th,
ZS023,S023,PTC-STA-มีนบุรี,13.775387,100.745683,300,ptc026mb@pt.co.th,
ZS026,S026,PTC-STA-เมืองเพชรบูรณ์,16.531661,101.15678,300,ptc029pb@pt.co.th,
ZS027,S027,PTC-STA-กันทรารมย์,15.10032,104.577566,300,ptc030kr@pt.co.th,
ZS028,S028,PTC-STA-เมืองสมุทรปราการ2,13.516672,100.673693,300,ptc031sk@pt.co.th,
ZS029,S029,PTC-STA-สามพราน3,13.720774,100.179091,300,ptc032sp@pt.co.th,
ZS030,S030,PTC-STA-พรหมคีรี,8.569714,99.8117,300,ptc033pr@pt.co.th,
ZS031,S031,PTC-STA-แม่จัน6,20.150818,99.857864,300,ptc034mc@pt.co.th,
ZS032,S032,PTC-STA-โพธิ์ทอง,14.651329,100.410757,300,ptc035pt@pt.co.th,
ZS033,S033,PTC-STA-กุดชุม,16.017054,104.282363,300,ptc036kc@pt.co.th,
ZS034,S034,PTC-STA-แม่สรวย,19.651129,99.506586,300,ptc037ms@pt.co.th,
ZS035,S035,PTC-STA-นาดูน,15.704766,103.275336,300,ptc038nd@pt.co.th,
ZS036,S036,PTC-STA-มุกดาหาร2,16.576571,104.720212,300,ptc039mh@pt.co.th,
ZS038,S038,PTC-STA-สมุทรสาคร2,13.545983,100.283921,300,ptc041sk@pt.co.th,
ZS039,S039,PTC-STA-ลับแล1(ตลิ่งต่ำ),17.598678,100.011811,300,ptc042ll@pt.co.th,
ZS040,S040,PTC-STA-ลับแล2(ดงสระแก้ว),17.500768,100.028334,300,ptc043ll@pt.co.th,
ZS041,S041,PTC-STA-ลับแล3(ไผ่ล้อม),17.597503,100.06528,300,ptc044ll@pt.co.th,
ZS042,S042,PTC-STA-กะปง,8.705272,98.404672,300,ptc045kp@pt.co.th,
ZS043,S043,PTC-STA-บุรีรัมย์4,15.034235,103.150244,300,ptc046br@pt.co.th,
ZS044,S044,PTC-STA-ชุมแพ2,16.613151,101.991148,300,ptc047cp@pt.co.th,
ZS045,S045,PTC-STA-บุณฑริก,14.819768,105.315639,300,ptc048br@pt.co.th,
ZS046,S046,PTC-STA-ปลายพระยา,8.582403,98.742373,300,ptc049py@pt.co.th,
ZS047,S047,PTC-STA-พระพุทธบาท,14.720113,100.809,300,ptc050pb@pt.co.th,
ZS048,S048,PTC-STA-ประเวศ3,13.724164,100.658374,300,ptc051pv@pt.co.th,
ZS049,S049,PTC-STA-สูงเม่น4,18.075919,100.174376,300,ptc052sm@pt.co.th,
ZS050,S050,PTC-STA-ราชบุรี3,13.521913,99.818396,300,ptc053rb@pt.co.th,
ZS052,S052,PTC-STA-ขุขันธ์3,14.639451,104.096669,300,ptc055kk@pt.co.th,
ZS053,S053,PTC-STA-ลาดกระบัง2,13.698769,100.849587,300,ptc056lb@pt.co.th,
ZS054,S054,PTC-STA-บ้านแป้น2,18.522137,98.966249,300,ptc057bp@pt.co.th,
ZS055,S055,PTC-STA-หนองบัวแดง2,16.075139,101.810222,300,ptc058nd@pt.co.th,
ZS056,S056,PTC-STA-สารภี,18.684385,98.992765,300,ptc059sp@pt.co.th,
ZS057,S057,PTC-STA-ห้วยผึ้ง,16.643163,103.902534,300,ptc060hp@pt.co.th,
ZS059,S059,PTC-STA-ดอนจาน,16.452671,103.704268,300,ptc062dj@pt.co.th,
ZS060,S060,PTC-STA-ตะโหมด,7.350818,100.11802,300,ptc063tm@pt.co.th,
ZS061,S061,PTC-STA-พนม,8.837226,98.840637,300,ptc064pn@pt.co.th,
ZS062,S062,PTC-STA-สันติสุข,18.925933,100.931383,300,ptc065ss@pt.co.th,
ZS063,S063,PTC-STA-ศีขรภูมิ4,14.934904,103.781309,300,ptc066sp@pt.co.th,
ZS064,S064,PTC-STA-สกลนคร,17.080433,103.980094,300,ptc067sk@pt.co.th,
ZS065,S065,PTC-STA-ปากช่อง2,14.635114,101.209299,300,ptc068pc@pt.co.th,
ZS066,S066,PTC-STA-นครศรีธรรมราช2,8.376185,100.039327,300,ptc069nr@pt.co.th,
ZS068,S068,PTC-STA-ทุ่งสง,8.074457,99.656588,300,ptc071ts@pt.co.th,
ZS069,S069,PTC-STA-ทุ่งสง2,8.078469,99.592337,300,ptc072ts@pt.co.th,
ZS070,S070,PTC-STA-พนัสนิคม5,13.4371674,101.1411489,300,ptc073pn@pt.co.th,
ZS071,S071,PTC-STA-พัทลุง5,7.592026,100.002746,300,ptc074pl@pt.co.th,
ZS072,S072,PTC-STA-ตรอน3,17.49234,100.233659,300,ptc075tr@pt.co.th,
ZS073,S073,PTC-STA-ท่ามะกา,13.902095,99.785401,300,ptc076tk@pt.co.th,
ZS074,S074,PTC-STA-ปะทิว2,10.713755,99.311186,300,ptc077pt@pt.co.th,
ZS075,S075,PTC-STA-จุน,19.305673,100.172259,300,ptc078ju@pt.co.th,
ZS076,S076,PTC-STA-ท่าชนะ,9.591371,99.127595,300,ptc079tn@pt.co.th,
ZS077,S077,PTC-STA-ศรีมหาโพธิ3,13.940136,101.541693,300,ptc080sp@pt.co.th,
ZS078,S078,PTC-STA-เวียงป่าเป้า3,19.371173,99.502693,300,ptc081wp@pt.co.th,
ZS079,S079,PTC-STA-อู่ทอง,14.392734,99.895758,300,ptc082ut@pt.co.th,
ZS080,S080,PTC-STA-ลาดยาว,15.75323,99.804579,300,ptc083ly@pt.co.th,
ZS081,S081,PTC-STA-น้ำปาด,17.730687,100.691475,300,ptc084np@pt.co.th,
ZS082,S082,PTC-STA-แม่ทะ,18.139049,99.512851,300,ptc085mt@pt.co.th,
ZS083,S083,PTC-STA-แม่จัน7,20.133145,99.826742,300,ptc086mc@pt.co.th,
ZS084,S084,PTC-STA-กาฬสินธุ์2,16.423143,103.481919,300,ptc087ks@pt.co.th,
ZS085,S085,PTC-STA-หลังสวน,9.953848,99.11105,300,ptc088ls@pt.co.th,
ZS086,S086,PTC-STA-เวียงชัย,19.893638,99.949887,300,ptc089wc@pt.co.th,
ZS087,S087,PTC-STA-หันคา2,14.988375,100.017545,300,ptc090hc@pt.co.th,
ZS088,S088,PTC-STA-ชะอวด,8.029002,99.938391,300,ptc091cu@pt.co.th,
ZS089,S089,PTC-STA-จังหาร,16.16787,103.613737,300,ptc092jh@pt.co.th,
ZS090,S090,PTC-STA-ชะอวด2,7.972777,99.991219,300,ptc093cu@pt.co.th,
ZS091,S091,PTC-STA-บ้านนา2,14.178629,101.030386,300,ptc094bn@pt.co.th,
ZS092,S092,PTC-STA-ลาดพร้าว2,13.841961,100.618318,300,ptc095lp@pt.co.th,
ZS093,S093,PTC-STA-ทับปุด,8.513666,98.632528,300,ptc096tp@pt.co.th,
ZS095,S095,PTC-STA-สรรคบุรี,15.04077,100.130419,300,ptc098sr@pt.co.th,
ZS096,S096,PTC-STA-เชียงราย2,19.907199,99.82314,300,ptc099cr@pt.co.th,
ZS097,S097,PTC-STA-หาดใหญ่3,6.964655,100.472194,300,ptc102hy@pt.co.th,
ZS098,S098,PTC-STA-เดชอุดม2,14.915566,105.062388,300,ptc103dd@pt.co.th,
ZS099,S099,PTC-STA-นครสวรรค์3,15.734755,100.025663,300,ptc104nw@pt.co.th,
ZS100,S100,PTC-STA-ปะเหลียน,7.207934,99.684408,300,ptc105pl@pt.co.th,
ZS101,S101,PTC-STA-บุรีรัมย์5,15.005922,103.125312,300,ptc106br@pt.co.th,
ZS102,S102,PTC-STA-พิจิตร2,16.450844,100.330387,300,ptc107pj@pt.co.th,
ZS103,S103,PTC-STA-ประโคนชัย4,14.622835,103.088015,300,ptc108pc@pt.co.th,
ZS104,S104,PTC-STA-ยางตลาด3,16.393929,103.299574,300,ptc109yl@pt.co.th,
ZS105,S105,PTC-STA-สุวรรณภูมิ,15.600068,103.808211,300,ptc110sb@pt.co.th,
ZS106,S106,PTC-STA-บางขัน,8.023244,99.530844,300,ptc111bk@pt.co.th,
ZS107,S107,PTC-STA-ชัยนาท2,15.190862,100.133619,300,ptc113cn@pt.co.th,
ZS108,S108,PTC-STA-พัทลุง6,7.626751,100.110889,300,ptc114pl@pt.co.th,
ZS109,S109,PTC-STA-กาญจนดิษฐ์,9.159223,99.502795,300,ptc115kd@pt.co.th,
ZS110,S110,PTC-STA-ฉวาง,8.427991,99.508515,300,ptc116cw@pt.co.th,
ZS111,S111,PTC-STA-นครศรีธรรมราช3,8.200827,100.030419,300,ptc117nr@pt.co.th,
ZS112,S112,PTC-STA-ท่าวุ้ง3,14.747416,100.546899,300,ptc118tw@pt.co.th,
ZS113,S113,PTC-STA-สทิงพระ,7.467909,100.440791,300,ptc119sp@pt.co.th,
ZS114,S114,PTC-STA-เฉลิมพระเกียรติ3,14.61569,102.906199,300,ptc120ck@pt.co.th,
ZS115,S115,PTC-STA-กมลาไสย2,16.236867,103.600955,300,ptc130ks@pt.co.th,
ZS116,S116,PTC-STA-ร่องคำ,16.259714,103.720909,300,ptc131rk@pt.co.th,
ZS117,S117,PTC-STA-หนองบัวแดง,16.076699,101.79762,300,ptc132hd@pt.co.th,
ZS118,S118,PTC-STA-อ่างทอง,14.535437,100.455134,300,ptc133at@pt.co.th,
ZS119,S119,PTC-STA-พะเยา3,19.220911,99.832884,300,ptc134py@pt.co.th,
ZS120,S120,PTC-STA-แม่แจ่ม,18.493332,98.375157,300,ptc135mj@pt.co.th,
ZS121,S121,PTC-STA-แม่ระมาด,16.988311,98.526834,300,ptc136mm@pt.co.th,
ZS122,S122,PTC-STA-เซกา3,17.889038,103.792045,300,ptc137sk@pt.co.th,
ZS123,S123,PTC-STA-บางคล้า2,13.745091,101.192569,300,ptc138bk@pt.co.th,
ZS124,S124,PTC-STA-แม่จัน5,20.239518,99.856419,300,ptc139mc@pt.co.th,
ZS125,S125,PTC-STA-นากลาง,17.303524,102.197473,300,ptc140nk@pt.co.th,
ZS126,S126,PTC-STA-ไทยเจริญ,16.082684,104.406959,300,ptc141tr@pt.co.th,
ZS127,S127,PTC-STA-สอง2,18.477586,100.189147,300,ptc142so@pt.co.th,
ZS128,S128,PTC-STA-เกษตรวิสัย2,15.6605,103.580286,300,ptc143ks@pt.co.th,
ZS129,S129,PTC-STA-พนมสารคาม3,13.728343,101.377263,300,ptc144pk@pt.co.th,
ZS131,S131,PTC-STA-บางสะพาน,11.382471,99.505797,300,ptc146bp@pt.co.th,
ZS132,S132,PTC-STA-ห้วยบง2,14.581919,100.900915,300,ptc147hb@pt.co.th,
ZS133,S133,PTC-STA-ลาดบัวหลวง,14.147998,100.290303,300,ptc148lb@pt.co.th,
ZS134,S134,PTC-STA-พรหมพิราม2,17.121244,100.298397,300,ptc149pr@pt.co.th,
ZS137,S137,PTC-STA-หนองคาย3,17.762606,102.701632,300,ptc152nk@pt.co.th,
ZS138,S138,PTC-STA-บางปลาม้า,14.39435,100.069499,300,ptc153bm@pt.co.th,
ZS140,S140,PTC-STA-ยโสธร3,15.900268,104.067773,300,ptc155yt@pt.co.th,
ZS141,S141,PTC-STA-พระพรหม,8.323825,99.922192,300,ptc156pp@pt.co.th,
ZS142,S142,PTC-STA-โซ่พิสัย,18.072758,103.448803,300,ptc157ss@pt.co.th,
ZS143,S143,PTC-STA-ป่าติ้ว,15.833614,104.39122,300,ptc158pt@pt.co.th,
ZS144,S144,PTC-STA-ไชโย2,14.681287,100.466169,300,ptc159cy@pt.co.th,
ZS145,S145,PTC-STA-ท่าวุ้ง,14.731821,100.512652,300,ptc160tw@pt.co.th,
ZS146,S146,PTC-STA-ท่าตูม,15.207615,103.638916,300,ptc161tt@pt.co.th,
ZS147,S147,PTC-STA-ไพศาลี,15.61943,100.57628,300,ptc162pl@pt.co.th,
ZS148,S148,PTC-STA-ท่าทราย2,13.884193,100.523947,300,ptc163ts@pt.co.th,
ZS149,S149,PTC-STA-เวียงสา,18.565432,100.730557,300,ptc164ws@pt.co.th,
ZS150,S150,PTC-STA-นาเยีย,15.067099,105.058342,300,ptc165ny@pt.co.th,
ZS151,S151,PTC-STA-บางละมุง,12.982234,100.93193,300,ptc166bl@pt.co.th,
ZS152,S152,PTC-STA-บางละมุง2,12.926499,100.900253,300,ptc167bl@pt.co.th,
ZS153,S153,PTC-STA-สระแก้ว3,13.771846,102.014067,300,ptc168sk@pt.co.th,
ZS154,S154,PTC-STA-บ้านแพ้ว,13.550121,100.146547,300,ptc169bp@pt.co.th,
ZS155,S155,PTC-STA-พิบูลมังสาหาร,15.166645,105.289189,300,ptc170bh@pt.co.th,
ZS156,S156,PTC-STA-บ้านธิ2,18.700348,99.162237,300,ptc171bt@pt.co.th,
ZS157,S157,PTC-STA-บางละมุง3,12.930855,100.910202,300,ptc172bl@pt.co.th,
ZS158,S158,PTC-STA-บ้านนาสาร,8.916895,99.398893,300,ptc173bs@pt.co.th,
ZS159,S159,PTC-STA-โพธิ์ศรีสุวรรณ,15.268603,104.01576,300,ptc174pw@pt.co.th,
ZS160,S160,PTC-STA-ห้างฉัตร,18.283332,99.380143,300,ptc175hc@pt.co.th,
ZS161,S161,PTC-STA-สังขะ,14.564949,103.874088,300,ptc176sk@pt.co.th,
ZS162,S162,PTC-STA-ทุ่งเสลี่ยม,17.334204,99.553644,300,ptc177tl@pt.co.th,
ZS163,S163,PTC-STA-พยัคฆภูมิพิสัย,15.583384,103.175477,300,ptc178ps@pt.co.th,
ZS164,S164,PTC-STA-บางระจัน2,14.885801,100.313083,300,ptc179bc@pt.co.th,
ZS165,S165,PTC-STA-บ้านโฮ่ง,18.303106,98.817816,300,ptc180bh@pt.co.th,
ZS167,S167,PTC-STA-ไชยวาน2,17.246372,103.210757,300,ptc182cw@pt.co.th,
ZS169,S169,PTC-STA-เดชอุดม,14.839356,105.109647,300,ptc184dd@pt.co.th,
ZS170,S170,PTC-STA-หนองจอก2,13.907039,100.863283,300,ptc185nj@pt.co.th,
ZS171,S171,PTC-STA-คำเขื่อนแก้ว,15.658856,104.301359,300,ptc186kk@pt.co.th,
ZS172,S172,PTC-STA-ทับสะแก2,11.512464,99.610861,300,ptc187tk@pt.co.th,
ZS174,S174,PTC-STA-ศรีประจันต์2,14.662869,100.129665,300,ptc189sj@pt.co.th,
ZS175,S175,PTC-STA-ตาก2,16.878016,99.129653,300,ptc191ta@pt.co.th,
ZS176,S176,PTC-STA-ฝาง2,19.776282,99.162004,300,ptc192fa@pt.co.th,
ZS177,S177,PTC-STA-นาคู,16.753688,104.023494,300,ptc193nk@pt.co.th,
ZS178,S178,PTC-STA-บ้านแพ้ว2,13.651642,100.156564,300,ptc194bp@pt.co.th,
ZS179,S179,PTC-STA-พะเยา4,19.1933317,99.8367793,300,ptc195py@pt.co.th,
ZS181,S181,PTC-STA-บึงกาฬ2,18.433974,103.434031,300,ptc197bk@pt.co.th,
ZS182,S182,PTC-STA-แคนดง,15.323892,103.138548,300,ptc198cd@pt.co.th,
ZS183,S183,PTC-STA-ถลาง,7.979537,98.333863,300,ptc199tl@pt.co.th,
ZS184,S184,PTC-STA-น้ำพอง,16.678451,102.803971,300,ptc201np@pt.co.th,
ZS185,S185,PTC-STA-พะเยา,19.196072,99.875543,300,ptc202py@pt.co.th,
ZS186,S186,PTC-STA-แม่ใจ,19.349988,99.803925,300,ptc203mj@pt.co.th,
ZS187,S187,PTC-STA-หนองกี่,14.685607,102.533498,300,ptc204nk@pt.co.th,
ZS188,S188,PTC-STA-ลำปาง,18.295663,99.415306,300,ptc205lp@pt.co.th,
ZS189,S189,PTC-STA-นางรอง,14.633484,102.798905,300,ptc206nr@pt.co.th,
ZS190,S190,PTC-STA-หนองแค,14.360148,100.877345,300,ptc207nk@pt.co.th,
ZS191,S191,PTC-STA-ดอยตุง,20.269459,99.860018,300,ptc209dt@pt.co.th,
ZS192,S192,PTC-STA-อุตรดิตถ์,17.584761,100.139693,300,ptc210ut@pt.co.th,
ZS193,S193,PTC-STA-วชิรบารมี,16.478638,100.147292,300,ptc211sg@pt.co.th,
ZS194,S194,PTC-STA-สีคิ้ว,14.846658,101.632199,300,ptc212sk@pt.co.th,
ZS195,S195,PTC-STA-บางบ่อ,13.585996,100.848632,300,ptc213bb@pt.co.th,
ZS196,S196,PTC-STA-เขาย้อย,13.314691,99.827081,300,ptc214ky@pt.co.th,
ZS197,S197,PTC-STA-เขาย้อย2,13.320895,99.827371,300,ptc215ky@pt.co.th,
ZS199,S199,PTC-STA-ปทุมธานี,13.956981,100.496619,300,ptc217pt@pt.co.th,
ZS201,S201,PTC-STA-ประเวศ,13.720677,100.679939,300,ptc219pv@pt.co.th,
ZS202,S202,PTC-STA-บางน้ำเปรี้ยว,13.787929,100.953001,300,ptc221bp@pt.co.th,
ZS203,S203,PTC-STA-หนองแขม,13.704869,100.341029,300,ptc223nk@pt.co.th,
ZS204,S204,PTC-STA-แม่จัน,20.130803,99.864114,300,ptc224mc@pt.co.th,
ZS205,S205,PTC-STA-บางปะหัน,14.485238,100.527219,300,ptc227bh@pt.co.th,
ZS206,S206,PTC-STA-วังน้อย,14.194149,100.643255,300,ptc228wn@pt.co.th,
ZS207,S207,PTC-STA-บางพูน,13.999312,100.572372,300,ptc229bp@pt.co.th,
ZS208,S208,PTC-STA-ห้วยลาน,19.310237,100.038732,300,ptc231hl@pt.co.th,
ZS209,S209,PTC-STA-พิจิตร,16.461648,100.361295,300,ptc236pc@pt.co.th,
ZS210,S210,PTC-STA-บ้านบึง,13.229187,101.150269,300,ptc237bb@pt.co.th,
ZS211,S211,PTC-STA-ภูเขียว,16.384222,102.12889,300,ptc239pk@pt.co.th,
ZS212,S212,PTC-STA-ตรอน,17.483924,100.234147,300,ptc240tr@pt.co.th,
ZS213,S213,PTC-STA-จันทบุรี,12.771828,101.841932,300,ptc243cb@pt.co.th,
ZS214,S214,PTC-STA-ท่าแซะ,10.639896,99.183875,300,ptc244ts@pt.co.th,
ZS215,S215,PTC-STA-ลำปลายมาศ,15.01172,102.831716,300,ptc245lm@pt.co.th,
ZS216,S216,PTC-STA-โคกสำโรง,15.075306,100.831139,300,ptc246ks@pt.co.th,
ZS217,S217,PTC-STA-พนัสนิคม,13.445,101.155777,300,ptc247pn@pt.co.th,
ZS218,S218,PTC-STA-โคกสำโรง2,15.072267,100.770681,300,ptc248ks@pt.co.th,
ZS219,S219,PTC-STA-งาว,18.7405593,99.9739005,300,ptc249ng@pt.co.th,
ZS220,S220,PTC-STA-สุพรรณบุรี,14.448991,100.108277,300,ptc250sb@pt.co.th,
ZS221,S221,PTC-STA-ท่าม่วง2,13.952858,99.6694,300,ptc251tm@pt.co.th,
ZS222,S222,PTC-STA-จัตุรัส,15.676129,101.985331,300,ptc252cr@pt.co.th,
ZS223,S223,PTC-STA-ปราสาท,14.655052,103.408325,300,ptc253ps@pt.co.th,
ZS225,S225,PTC-STA-หนองคาย2,17.885026,102.760072,300,ptc255nk@pt.co.th,
ZS226,S226,PTC-STA-ดอยสะเก็ด,18.802643,99.111656,300,ptc257cm@pt.co.th,
ZS227,S227,PTC-STA-ราชบุรี,13.51114,99.829293,300,ptc259rb@pt.co.th,
ZS228,S228,PTC-STA-กุมภวาปี,17.106181,103.019442,300,ptc260kp@pt.co.th,
ZS230,S230,PTC-STA-สันป่าตอง,18.571938,98.878402,300,ptc262st@pt.co.th,
ZS231,S231,PTC-STA-ลำดวน,14.735027,103.659817,300,ptc264ld@pt.co.th,
ZS232,S232,PTC-STA-เพชรบุรี,13.1298733,99.8684766,300,ptc265pb@pt.co.th,
ZS233,S233,PTC-STA-บางสะพานน้อย,11.083353,99.369784,300,ptc266bn@pt.co.th,
ZS234,S234,PTC-STA-เพชรบุรี2,13.099813,99.960389,300,ptc267pb@pt.co.th,
ZS235,S235,PTC-STA-สองพี่น้อง,14.186723,100.05223,300,ptc268sp@pt.co.th,
ZS236,S236,PTC-STA-บ้านไผ่,16.063774,102.731068,300,ptc270bp@pt.co.th,
ZS237,S237,PTC-STA-ท่ายาง,12.992085,99.90418,300,ptc272ty@pt.co.th,
ZS238,S238,PTC-STA-บึงกาฬ,18.349203,103.637498,300,ptc273bk@pt.co.th,
ZS239,S239,PTC-STA-สากเหล็ก,16.491793,100.478679,300,ptc274sl@pt.co.th,
ZS240,S240,PTC-STA-เพ็ญ,17.615422,102.789543,300,ptc275pe@pt.co.th,
ZS241,S241,PTC-STA-วังน้ำเย็น,13.508201,102.179385,300,ptc276wy@pt.co.th,
ZS242,S242,PTC-STA-เชียงยืน,16.402699,103.099765,300,ptc277cy@pt.co.th,
ZS243,S243,PTC-STA-ธาตุพนม,16.959879,104.725863,300,ptc278tp@pt.co.th,
ZS244,S244,PTC-STA-ศีขรภูมิ,14.901199,103.729381,300,ptc280sp@pt.co.th,
ZS245,S245,PTC-STA-บางไทร,14.178718,100.480792,300,ptc281bs@pt.co.th,
ZS246,S246,PTC-STA-บางเลน2,14.15829,100.191039,300,ptc282bl@pt.co.th,
ZS247,S247,PTC-STA-บ้านลาด,13.056445,99.921777,300,ptc283bl@pt.co.th,
ZS248,S248,PTC-STA-นิคมพัฒนา,12.827549,101.203158,300,ptc284np@pt.co.th,
ZS249,S249,PTC-STA-นครสวรรค์,15.717718,100.177925,300,ptc286ns@pt.co.th,
ZS250,S250,PTC-STA-อ่าวน้อย,11.896117,99.793193,300,ptc287an@pt.co.th,
ZS251,S251,PTC-STA-ท่าทอง,16.792457,100.209556,300,ptc288tt@pt.co.th,
ZS252,S252,PTC-STA-แม่กรณ์,19.838799,99.714555,300,ptc290mk@pt.co.th,
ZS254,S254,PTC-STA-เขื่องใน,15.394794,104.552405,300,ptc292kn@pt.co.th,
ZS256,S256,PTC-STA-ขุนทะเล,9.0522501,99.3638746,300,ptc294kl@pt.co.th,
ZS257,S257,PTC-STA-ทุ่งตะโก,10.131111,99.091907,300,ptc295tg@pt.co.th,
ZS258,S258,PTC-STA-สายไหม,13.902128,100.666432,300,ptc296sm@pt.co.th,
ZS259,S259,PTC-STA-วังจันทร์,12.880454,101.564711,300,ptc297wj@pt.co.th,
ZS260,S260,PTC-STA-สิงห์บุรี,14.893399,100.40821,300,ptc298sb@pt.co.th,
ZS261,S261,PTC-STA-กระนวน,16.703643,103.072678,300,ptc299kn@pt.co.th,
ZS263,S263,PTC-STA-อำนาจเจริญ,15.86392,104.533439,300,ptc311ac@pt.co.th,
ZS264,S264,PTC-STA-ม่วงสามสิบ,15.516806,104.721643,300,ptc312ms@pt.co.th,
ZS265,S265,PTC-STA-หัวไทร2,8.051027,100.250127,300,ptc313hs@pt.co.th,
ZS266,S266,PTC-STA-กันทรวิชัย,16.235794,103.268404,300,ptc314kw@pt.co.th,
ZS267,S267,PTC-STA-ลำลูกกา2,13.929232,100.75178,300,ptc315lk@pt.co.th,
ZS268,S268,PTC-STA-นาโพธิ์,15.643281,102.950606,300,ptc316np@pt.co.th,
ZS269,S269,PTC-STA-แพร่3,18.134637,100.117297,300,ptc317pa@pt.co.th,
ZS270,S270,PTC-STA-วารินชำราบ4,15.16372,104.782195,300,ptc318wr@pt.co.th,
ZS271,S271,PTC-STA-สตึก2,15.295848,103.279418,300,ptc319st@pt.co.th,
ZS272,S272,PTC-STA-ไทรน้อย2,14.071084,100.322428,300,ptc320sn@pt.co.th,
ZS273,S273,PTC-STA-ลาดพร้าว87,13.798852,100.619978,300,ptc322lp@pt.co.th,
ZS274,S274,PTC-STA-หนองไผ่2,15.98432,101.061595,300,ptc323np@pt.co.th,
ZS275,S275,PTC-STA-ชัยนาท,15.2468552,100.2654778,300,ptc324cn@pt.co.th,
ZS276,S276,PTC-STA-วชิรบารมี2,16.516476,100.143108,300,ptc325vm@pt.co.th,
ZS277,S277,PTC-STA-สามโคก,14.049399,100.567822,300,ptc326sk@pt.co.th,
ZS278,S278,PTC-STA-แจ้ห่ม,18.729909,99.582914,300,ptc328jh@pt.co.th,
ZS279,S279,PTC-STA-อรัญประเทศ,13.789759,102.546043,300,ptc329at@pt.co.th,
ZS280,S280,PTC-STA-ดอยหลวง,20.191758,100.132216,300,ptc330dl@pt.co.th,
ZS281,S281,PTC-STA-วิเชียรบุรี,15.618158,101.059049,300,ptc331wb@pt.co.th,
ZS282,S282,PTC-STA-นครปฐม3,13.83469,100.068817,300,ptc332nt@pt.co.th,
ZS283,S283,PTC-STA-ทวีวัฒนา,13.797447,100.379751,300,ptc333tn@pt.co.th,
ZS284,S284,PTC-STA-ร่อนพิบูลย์,8.177797,99.855302,300,ptc334rb@pt.co.th,
ZS285,S285,PTC-STA-ชุมแพ,16.560276,102.104366,300,ptc335cp@pt.co.th,
ZS286,S286,PTC-STA-โพธิ์ชัย,16.295067,103.811447,300,ptc336pc@pt.co.th,
ZS288,S288,PTC-STA-กระบุรี2,10.432664,98.791149,300,ptc338kr@pt.co.th,
ZS289,S289,PTC-STA-ท่าแซะ2,10.856341,99.241798,300,ptc339ts@pt.co.th,
ZS290,S290,PTC-STA-แกลง2,12.740159,101.600166,300,ptc340kg@pt.co.th,
ZS291,S291,PTC-STA-ปะทิว,10.928437,99.289384,300,ptc341pt@pt.co.th,
ZS292,S292,PTC-STA-บางสะพานน้อย4(เขาโพธิ์),10.991386,99.356143,300,ptc342bn@pt.co.th,
ZS293,S293,PTC-STA-ศรีนครินทร์,7.582489,99.966276,300,ptc343sr@pt.co.th,
ZS294,S294,PTC-STA-สันป่าตอง5,18.634008,98.897797,300,ptc344st@pt.co.th,
ZS295,S295,PTC-STA-มโนรมย์,15.2524548,100.2049232,300,ptc345mr@pt.co.th,
ZS296,S296,PTC-STA-เกษตรสมบูรณ์,16.252247,101.930484,300,ptc346kb@pt.co.th,
ZS297,S297,PTC-STA-นครศรีธรรมราช,8.55886,99.9497,300,ptc347nr@pt.co.th,
ZS298,S298,PTC-STA-พิชัย,17.289791,100.06891,300,ptc348pc@pt.co.th,
ZS299,S299,PTC-STA-ลานสกา,8.379074,99.812089,300,ptc349lk@pt.co.th,
ZS300,S300,PTC-STA-เลาขวัญ,14.581971,99.769311,300,ptc350lw@pt.co.th,
ZS301,S301,PTC-STA-แปลงยาว2,13.580015,101.279514,300,ptc401py@pt.co.th,
ZS302,S302,PTC-STA-เขาสวนกวาง,16.811648,102.8352203,300,ptc402kk@pt.co.th,
ZS304,S304,PTC-STA-บุรีรัมย์3,14.928735,103.14232,300,ptc404br@pt.co.th,
ZS305,S305,PTC-STA-ลาดหลุมแก้ว,14.025952,100.35426,300,ptc405lk@pt.co.th,
ZS306,S306,PTC-STA-หันคา,14.967813,100.079393,300,ptc406hk@pt.co.th,
ZS307,S307,PTC-STA-พาน2,19.53632,99.742123,300,ptc407pa@pt.co.th,
ZS308,S308,PTC-STA-สูงเนิน2,14.798277,101.90227,300,ptc408sn@pt.co.th,
ZS309,S309,PTC-STA-ราชบุรี2,13.554964,99.785752,300,ptc409rb@pt.co.th,
ZS310,S310,PTC-STA-นครชัยศรี3,13.777158,100.178587,300,ptc410ns@pt.co.th,
ZS311,S311,PTC-STA-ประทาย,15.543039,102.734872,300,ptc411pt@pt.co.th,
ZS312,S312,PTC-STA-ทองแสนขัน,17.464869,100.273228,300,ptc412tk@pt.co.th,
ZS313,S313,PTC-STA-หนองหาน5,17.34818,103.180012,300,ptc413nh@pt.co.th,
ZS314,S314,PTC-STA-ผักไห่2,14.497916,100.36225,300,ptc414ph@pt.co.th,
ZS315,S315,PTC-STA-ภูเวียง,16.64182,102.384692,300,ptc416pw@pt.co.th,
ZS316,S316,PTC-STA-ศรีเทพ,15.436858,101.069799,300,ptc417st@pt.co.th,
ZS318,S318,PTC-STA-ลำปลายมาศ2,14.985736,102.961885,300,ptc419lm@pt.co.th,
ZS319,S319,PTC-STA-สวี2,10.225903,99.099975,300,ptc420sw@pt.co.th,
ZS320,S320,PTC-STA-นครราชสีมา4,14.949838,102.124443,300,ptc421nm@pt.co.th,
ZS321,S321,PTC-STA-กระบุรี,10.342632,98.777749,300,ptc422rn@pt.co.th,
ZS322,S322,PTC-STA-ชัยภูมิ2,15.791032,101.991467,300,ptc423cp@pt.co.th,
ZS323,S323,PTC-STA-หนองหาน6,17.358974,102.954168,300,ptc424nh@pt.co.th,
ZS324,S324,PTC-STA-บางเลน3,14.119525,100.11445,300,ptc425bl@pt.co.th,
ZS326,S326,PTC-STA-บ้านแหลม,13.148331,99.960331,300,ptc427bl@pt.co.th,
ZS327,S327,PTC-STA-สนม,15.180487,103.8212,300,ptc428sm@pt.co.th,
ZS328,S328,PTC-STA-มหาสารคาม,16.095041,103.298495,300,ptc429mk@pt.co.th,
ZS329,S329,PTC-STA-กำแพงแสน4,14.08753,99.98851,300,ptc430ks@pt.co.th,
ZS330,S330,PTC-STA-ทุ่งครุ2,13.629834,100.504401,300,ptc431tk@pt.co.th,
ZS331,S331,PTC-STA-นครสวรรค์2,15.784491,99.971449,300,ptc432ns@pt.co.th,
ZS332,S332,PTC-STA-ปากช่อง,14.655615,101.348936,300,ptc433pc@pt.co.th,
ZS333,S333,PTC-STA-สวรรคโลก,17.324508,99.837765,300,ptc434sk@pt.co.th,
ZS334,S334,PTC-STA-พัทลุง3,7.5792,99.996547,300,ptc435pl@pt.co.th,
ZS335,S335,PTC-STA-สมเด็จ3,16.730172,103.763252,300,ptc436sd@pt.co.th,
ZS336,S336,PTC-STA-คูเมือง2,15.355656,103.010276,300,ptc437km@pt.co.th,
ZS337,S337,PTC-STA-ป่าบอน,7.208932,100.205153,300,ptc438pb@pt.co.th,
ZS338,S338,PTC-STA-ธวัชบุรี,16.109625,103.833072,300,ptc439tr@pt.co.th,
ZS339,S339,PTC-STA-กุมภวาปี4,17.137931,102.969749,300,ptc440kp@pt.co.th,
ZS340,S340,PTC-STA-บึงโขงหลง,17.951738,104.047135,300,ptc441bl@pt.co.th,
ZS341,S341,PTC-STA-ลำปาง4,18.281747,99.520273,300,ptc442lp@pt.co.th,
ZS342,S342,PTC-STA-ปราสาท4,14.732018,103.423107,300,ptc443ps@pt.co.th,
ZS343,S343,PTC-STA-แม่จัน4,20.149435,99.855444,300,ptc444mc@pt.co.th,
ZS344,S344,PTC-STA-ห้วยบง,14.606442,100.894112,300,ptc445hb@pt.co.th,
ZS345,S345,PTC-STA-โนนสูง,15.106557,102.290937,300,ptc446ns@pt.co.th,
ZS346,S346,PTC-STA-บางสะพานน้อย3,11.006963,99.36698,300,ptc447bn@pt.co.th,
ZS348,S348,PTC-STA-กระบี่,8.09879,98.802494,300,ptc449kb@pt.co.th,
ZS349,S349,PTC-STA-กระนวน4,16.755354,103.089328,300,ptc450kn@pt.co.th,
ZS350,S350,PTC-STA-ขุขันธ์,14.79879,104.188075,300,ptc451kk@pt.co.th,
ZS351,S351,PTC-STA-เซกา2,17.934646,103.946982,300,ptc452sk@pt.co.th,
ZS352,S352,PTC-STA-ด่านซ้าย,17.355481,101.244139,300,ptc453ds@pt.co.th,
ZS353,S353,PTC-STA-บ่อทอง,13.309067,101.333361,300,ptc454bt@pt.co.th,
ZS354,S354,PTC-STA-ศีขรภูมิ3,14.953659,103.784131,300,Ptc455sp@pt.co.th,
ZS356,S356,PTC-STA-หางดง4,18.635211,98.93105,300,ptc457hd@pt.co.th,
ZS357,S357,PTC-STA-คอนสวรรค์,15.919509,102.277516,300,ptc458ks@pt.co.th,
ZS358,S358,PTC-STA-บ้านบัว2,14.85776,102.980788,300,ptc459bb@pt.co.th,
ZS359,S359,PTC-STA-นางรอง4,14.594568,102.76986,300,ptc460nr@pt.co.th,
ZS360,S360,PTC-STA-หาดใหญ่2,6.990243,100.405198,300,ptc461hy@pt.co.th,
ZS361,S361,PTC-STA-โชคชัย,14.740303,102.157692,300,ptc462cc@pt.co.th,
ZS362,S362,PTC-STA-วารินชำราบ2,15.170647,104.877888,300,ptc463wr@pt.co.th,
ZS363,S363,PTC-STA-วารินชำราบ3,15.177549,104.836901,300,ptc464wr@pt.co.th,
ZS365,S365,PTC-STA-กุมภวาปี5,17.138366,102.94713,300,ptc466kp@pt.co.th,
ZS366,S366,PTC-STA-บ้านไผ่4,16.096594,102.732042,300,ptc467bp@pt.co.th,
ZS367,S367,PTC-STA-แพร่2,18.214552,100.203686,300,ptc468pa@pt.co.th,
ZS368,S368,PTC-STA-สันทราย3,18.853221,99.092039,300,ptc469ss@pt.co.th,
ZS369,S369,PTC-STA-มหาสารคาม2,16.160145,103.278205,300,ptc470mk@pt.co.th,
ZS370,S370,PTC-STA-พัทลุง4,7.5260701,100.0509303,300,ptc471pl@pt.co.th,
ZS371,S371,PTC-STA-ดอกคำใต้2,19.233879,100.049083,300,ptc472dt@pt.co.th,
ZS372,S372,PTC-STA-สูงเม่น2,18.090108,100.128742,300,ptc473sm@pt.co.th,
ZS373,S373,PTC-STA-ดอยสะเก็ด2,18.819755,99.124174,300,ptc474dk@pt.co.th,
ZS374,S374,PTC-STA-ตากฟ้า,15.366227,100.506174,300,ptc475tf@pt.co.th,
ZS375,S375,PTC-STA-สอง,18.445308,100.184858,300,ptc476so@pt.co.th,
ZS376,S376,PTC-STA-ตากฟ้า2,15.355859,100.518838,300,ptc477tf@pt.co.th,
ZS377,S377,PTC-STA-กาฬสินธุ์,16.526746,103.606487,300,ptc478ks@pt.co.th,
ZS378,S378,PTC-STA-หัวไทร,8.032199,100.316964,300,ptc479hs@pt.co.th,
ZS381,S381,PTC-STA-พล2,15.858994,102.624744,300,ptc482pl@pt.co.th,
ZS382,S382,PTC-STA-กุมภวาปี6,17.159347,102.950918,300,ptc483kp@pt.co.th,
ZS383,S383,PTC-STA-สูงเม่น3,18.09269,100.131065,300,ptc484sm@pt.co.th,
ZS384,S384,PTC-STA-ส่องดาว,17.327739,103.490801,300,ptc485sd@pt.co.th,
ZS385,S385,PTC-STA-สันป่าตอง4,18.550259,98.866202,300,ptc486st@pt.co.th,
ZS387,S387,PTC-STA-ธวัชบุรี2,16.033795,103.770638,300,ptc488tr@pt.co.th,
ZS388,S388,PTC-STA-สมเด็จ4,16.709017,103.717261,300,ptc489sd@pt.co.th,
ZS389,S389,PTC-STA-ศรีเมืองใหม่,15.485431,105.278524,300,ptc490sm@pt.co.th,
ZS390,S390,PTC-STA-เพ็ญ2,17.587669,102.800228,300,ptc491pe@pt.co.th,
ZS391,S391,PTC-STA-ไทรโยค,14.1789298,99.1261735,300,ptc492sy@pt.co.th,
ZS392,S392,PTC-STA-เชียรใหญ่,8.099339,100.111239,300,ptc493cy@pt.co.th,
ZS393,S393,PTC-STA-ตรอน2,17.45842,100.213788,300,ptc494tr@pt.co.th,
ZS394,S394,PTC-STA-ยางตลาด2,16.333846,103.422686,300,ptc495yl@pt.co.th,
ZS395,S395,PTC-STA-บึงโขงหลง2,18.031888,104.140245,300,ptc496bh@pt.co.th,
ZS396,S396,PTC-STA-บึงโขงหลง3,18.027699,104.142801,300,ptc497bh@pt.co.th,
ZS397,S397,PTC-STA-ยโสธร2,15.796181,104.146191,300,ptc498yt@pt.co.th,
ZS398,S398,PTC-STA-โคกศรีสุพรรณ,17.024041,104.326054,300,ptc499kp@pt.co.th,
ZS399,S399,PTC-STA-พระพุทธบาท2,14.709104,100.83432,300,ptc569pb@pt.co.th,
ZS400,S400,PTC-STA-ยโสธร4,15.829164,104.115775,300,ptc570yt@pt.co.th,
ZS401,S401,PTC-STA-น่าน,18.729659,100.754786,300,ptc571nn@pt.co.th,
ZS402,S402,PTC-STA-บางน้ำเปรี้ยว2,13.825222,101.054755,300,ptc572bp@pt.co.th,
ZS403,S403,PTC-STA-ดงหลวง,16.809591,104.534081,300,ptc573dl@pt.co.th,
ZS404,S404,PTC-STA-หันคา3,15.06549,99.991965,300,ptc574hk@pt.co.th,
ZS405,S405,PTC-STA-อุทุมพรพิสัย2,15.168528,104.158141,300,ptc575us@pt.co.th,
ZS406,S406,PTC-STA-บางบอน2,13.671563,100.426693,300,ptc576bb@pt.co.th,
ZS407,S407,PTC-STA-บึงกุ่ม2,13.829165,100.658725,300,ptc577bk@pt.co.th,
ZS408,S408,PTC-STA-นครสวรรค์5,15.677217,100.10252,300,ptc578nw@pt.co.th,
ZS409,S409,PTC-STA-แม่วาง,18.614347,98.779643,300,ptc579mw@pt.co.th,
ZS410,S410,PTC-STA-แม่ริม2,18.9204924,98.9422461,300,ptc580mr@pt.co.th,
ZS411,S411,PTC-STA-บ้านแหลม2,13.190874,99.991403,300,ptc581bl@pt.co.th,
ZS412,S412,PTC-STA-สมุทรสงคราม,13.442137,100.037948,300,ptc582sk@pt.co.th,
ZS413,S413,PTC-STA-นิคมน้ำอูน,17.19078,103.704033,300,ptc583nu@pt.co.th,
ZS414,S414,PTC-STA-ธัญบุรี,14.055907,100.831548,300,ptc584tr@pt.co.th,
ZS415,S415,PTC-STA-อู่ทอง3,14.3201096,99.8642416,300,ptc585ut@pt.co.th,
ZS416,S416,PTC-STA-ปะเหลียน2,7.3571,99.707827,300,ptc586pl@pt.co.th,
ZS417,S417,PTC-STA-น้ำพอง2,16.564412,102.95297,300,ptc587np@pt.co.th,
ZS418,S418,PTC-STA-ขอนแก่น2,16.486192,102.945452,300,ptc588kk@pt.co.th,
ZS419,S419,PTC-STA-หลังสวน2,9.975865,98.999206,300,ptc589ls@pt.co.th,
ZS420,S420,PTC-STA-ทรายมูล,15.928773,104.201128,300,ptc590sm@pt.co.th,
ZS421,S421,PTC-STA-คลองท่อม,7.747702,99.262985,300,ptc591kt@pt.co.th,
ZS422,S422,PTC-STA-บางปลาม้า3,14.361173,100.069209,300,ptc592bm@pt.co.th,
ZS423,S423,PTC-STA-สุวรรณภูมิ2,15.542132,103.806905,300,ptc593sb@pt.co.th,
ZS424,S424,PTC-STA-โพนทราย,15.527487,103.849284,300,ptc594ps@pt.co.th,
ZS425,S425,PTC-STA-นครราชสีมา5,14.987596,102.1894,300,ptc595nm@pt.co.th,
ZS426,S426,PTC-STA-สวนผึ้ง,13.542172,99.343806,300,ptc596sp@pt.co.th,
ZS428,S428,PTC-STA-ทุ่งสง3,8.164984,99.657133,300,ptc598ts@pt.co.th,
ZS429,S429,PTC-STA-เขาชัยสน2,7.440926,100.06796,300,ptc599ks@pt.co.th,
ZS430,S430,PTC-STA-ศรีราชา,13.199005,100.93925,300,ptc601sc@pt.co.th,
ZS431,S431,PTC-STA-กุยบุรี,12.115534,99.852757,300,ptc602kb@pt.co.th,
ZS432,S432,PTC-STA-แพร่,18.091638,100.196958,300,ptc604pa@pt.co.th,
ZS433,S433,PTC-STA-ลำปาง2,18.244105,99.447117,300,ptc606lp@pt.co.th,
ZS434,S434,PTC-STA-สูงเม่น,18.0686,100.119667,300,ptc607sm@pt.co.th,
ZS435,S435,PTC-STA-นางรอง2,14.63269,102.807474,300,ptc608nr@pt.co.th,
ZS436,S436,PTC-STA-นครชัยศรี,13.774408,100.216897,300,ptc609ns@pt.co.th,
ZS437,S437,PTC-STA-พนมสารคาม,13.771338,101.385755,300,ptc610pk@pt.co.th,
ZS439,S439,PTC-STA-ชะอำ,12.776935,99.966687,300,ptc616ca@pt.co.th,
ZS440,S440,PTC-STA-วิหารแดง,14.340423,100.995199,300,ptc618vd@pt.co.th,
ZS441,S441,PTC-STA-บางสะพานน้อย2,11.0697191,99.3734954,300,ptc619pn@pt.co.th,
ZS442,S442,PTC-STA-บางบาล,14.323499,100.461655,300,ptc620bb@pt.co.th,
ZS443,S443,PTC-STA-แกลง,12.699951,101.635615,300,ptc621kg@pt.co.th,
ZS446,S446,PTC-STA-นครชุม,16.474705,99.50361,300,ptc624nc@pt.co.th,
ZS447,S447,PTC-STA-ไชโย,14.686714,100.463202,300,ptc625cy@pt.co.th,
ZS448,S448,PTC-STA-เฉลิมพระเกียรติ,14.609852,102.917744,300,ptc627ck@pt.co.th,
ZS449,S449,PTC-STA-บ้านบึง2,13.219198,101.237303,300,ptc628bb@pt.co.th,
ZS451,S451,PTC-STA-ร้อยเอ็ด,16.102012,103.524824,300,ptc630la@pt.co.th,
ZS453,S453,PTC-STA-ปราสาท2,14.629141,103.402994,300,ptc632ps@pt.co.th,
ZS454,S454,PTC-STA-ศีขรภูมิ2,14.933521,103.779376,300,ptc633sp@pt.co.th,
ZS455,S455,PTC-STA-แม่ฮ่องสอน,19.361469,97.966763,300,ptc635ms@pt.co.th,
ZS456,S456,PTC-STA-เวียงหนองล่อง,18.427899,98.740157,300,ptc636vl@pt.co.th,
ZS457,S457,PTC-STA-พังโคน,17.379996,103.717971,300,ptc637pk@pt.co.th,
ZS459,S459,PTC-STA-พรหมบุรี,14.743792,100.45332,300,ptc641pb@pt.co.th,
ZS461,S461,PTC-STA-ปราจีนบุรี,14.062028,101.373397,300,ptc643pb@pt.co.th,
ZS462,S462,PTC-STA-ไทรน้อย,14.024284,100.294388,300,ptc644sn@pt.co.th,
ZS463,S463,PTC-STA-พล,15.811633,102.610167,300,ptc645pl@pt.co.th,
ZS464,S464,PTC-STA-เพชรบุรี3,13.114518,99.927229,300,ptc646pb@pt.co.th,
ZS465,S465,PTC-STA-ฝาง,19.82834,99.170172,300,ptc647fa@pt.co.th,
ZS466,S466,PTC-STA-กระทุ่มแบน,13.654442,100.2691,300,ptc648kb@pt.co.th,
ZS467,S467,PTC-STA-ภักดีชุมพล,15.848396,101.412785,300,ptc649pp@pt.co.th,
ZS468,S468,PTC-STA-โกสุมพิสัย2,16.270604,102.975744,300,ptc650ks@pt.co.th,
ZS469,S469,PTC-STA-นครราชสีมา,14.945891,102.053386,300,ptc651nm@pt.co.th,
ZS470,S470,PTC-STA-วังสามหมอ,16.959397,103.435184,300,ptc652wm@pt.co.th,
ZS471,S471,PTC-STA-นครชัยศรี2,13.764477,100.129683,300,ptc653ns@pt.co.th,
ZS473,S473,PTC-STA-ทับสะแก,11.481679,99.5974343,300,ptc656tk@pt.co.th,
ZS474,S474,PTC-STA-หล่มเก่า,16.906803,101.229826,300,ptc657lk@pt.co.th,
ZS475,S475,PTC-STA-พิษณุโลก,16.877349,100.244978,300,ptc658pl@pt.co.th,
ZS476,S476,PTC-STA-ตาก,16.852771,99.116337,300,ptc659ta@pt.co.th,
ZS477,S477,PTC-STA-สามเงา,17.201298,99.125992,300,ptc660sg@pt.co.th,
ZS478,S478,PTC-STA-ลอง,18.091693,99.847064,300,ptc661lo@pt.co.th,
ZS479,S479,PTC-STA-เถิน,17.622911,99.23707,300,ptc662th@pt.co.th,
ZS480,S480,PTC-STA-กุมภวาปี2,17.111226,103.028765,300,ptc664kp@pt.co.th,
ZS481,S481,PTC-STA-ท่าหลวง,16.420667,100.366027,300,ptc668tl@pt.co.th,
ZS482,S482,PTC-STA-บางแพ,13.637772,99.920928,300,ptc669bp@pt.co.th,
ZS483,S483,PTC-STA-เลย2,17.526111,101.725644,300,ptc670le@pt.co.th,
ZS484,S484,PTC-STA-แม่จัน2,20.205442,99.927211,300,ptc671mc@pt.co.th,
ZS485,S485,PTC-STA-หนองม่วง,15.2140047,100.665578,300,ptc673nm@pt.co.th,
ZS486,S486,PTC-STA-เชียงยืน2,16.373542,103.153534,300,ptc674cy@pt.co.th,
ZS488,S488,PTC-STA-พนัสนิคม2,13.456402,101.196596,300,ptc677pk@pt.co.th,
ZS489,S489,PTC-STA-หาดใหญ่,6.992643,100.419677,300,ptc679hy@pt.co.th,
ZS490,S490,PTC-STA-พนัสนิคม3,13.443609,101.282623,300,ptc680pk@pt.co.th,
ZS491,S491,PTC-STA-บ้านบึง3,13.253638,101.154968,300,ptc681bb@pt.co.th,
ZS492,S492,PTC-STA-ชนบท,16.084496,102.637319,300,ptc682cb@pt.co.th,
ZS493,S493,PTC-STA-พนมทวน,14.074952,99.654313,300,ptc683pt@pt.co.th,
ZS495,S495,PTC-STA-เวียงป่าเป้า,19.379566,99.502896,300,ptc685wp@pt.co.th,
ZS496,S496,PTC-STA-บ้านใต้,14.016817,99.534261,300,ptc686bt@pt.co.th,
ZS497,S497,PTC-STA-โนนไทย,15.268736,102.019486,300,ptc687nt@pt.co.th,
ZS498,S498,PTC-STA-แม่ริม,18.9184217,98.9124029,300,ptc688mr@pt.co.th,
ZS499,S499,PTC-STA-สมเด็จ2,16.692239,103.754325,300,ptc689sd@pt.co.th,
ZS500,S500,PTC-STA-บ้านหมอ,14.578289,100.728693,300,ptc690bm@pt.co.th,
ZS501,S501,PTC-STA-ปราจีนบุรี2,14.150599,101.325024,300,ptc691pb@pt.co.th,
ZS503,S503,PTC-STA-ดอยหล่อ,18.493352,98.812463,300,ptc694dl@pt.co.th,
ZS504,S504,PTC-STA-สบปราบ,17.90588,99.341758,300,ptc695sp@pt.co.th,
ZS505,S505,PTC-STA-เขาวง,16.687938,104.0835,300,ptc696kw@pt.co.th,
ZS506,S506,PTC-STA-สันป่าตอง2,18.615158,98.861224,300,ptc697st@pt.co.th,
ZS508,S508,PTC-STA-บางกุ้ง,14.45871,100.035861,300,ptc699dt@pt.co.th,
ZS509,S509,PTC-STA-บ้านใหม่ไชยพจน์,15.565881,102.826098,300,ptc701bp@pt.co.th,
ZS510,S510,PTC-STA-หนองใหญ่,13.059791,101.423321,300,ptc702ny@pt.co.th,
ZS511,S511,PTC-STA-หนองบุญมาก,14.731146,102.397428,300,ptc703nm@pt.co.th,
ZS512,S512,PTC-STA-สามชุก,14.747012,100.100019,300,ptc704sc@pt.co.th,
ZS513,S513,PTC-STA-นครปฐม,13.826691,100.066671,300,ptc705nt@pt.co.th,
ZS514,S514,PTC-STA-วังสามหมอ2,16.948471,103.424182,300,ptc706wm@pt.co.th,
ZS515,S515,PTC-STA-ขาณุวรลักษบุรี,16.057121,99.743494,300,ptc707kl@pt.co.th,
ZS516,S516,PTC-STA-เซกา,17.922597,103.941246,300,ptc708sk@pt.co.th,
ZS517,S517,PTC-STA-บางมูลนาก,16.033006,100.372326,300,ptc709bn@pt.co.th,
ZS518,S518,PTC-STA-หางดง,18.689015,98.951609,300,ptc710hd@pt.co.th,
ZS520,S520,PTC-STA-วัดสิงห์,15.2595344,100.0393732,300,ptc712ws@pt.co.th,
ZS521,S521,PTC-STA-อรัญญิก,16.817014,100.299946,300,ptc713ay@pt.co.th,
ZS522,S522,PTC-STA-สันทราย,18.821408,99.033386,300,ptc714ss@pt.co.th,
ZS523,S523,PTC-STA-เวียงหนองล่อง2,18.423638,98.78208,300,ptc715vl@pt.co.th,
ZS524,S524,PTC-STA-พระยืน,16.287819,102.607935,300,ptc716py@pt.co.th,
ZS525,S525,PTC-STA-เมืองเก่า,16.388464,102.825268,300,ptc717mk@pt.co.th,
ZS526,S526,PTC-STA-บ้านทุ่ม2,16.466556,102.704111,300,ptc718bt@pt.co.th,
ZS527,S527,PTC-STA-คำม่วง,16.799954,103.663481,300,ptc719km@pt.co.th,
ZS528,S528,PTC-STA-หล่มสัก,16.775438,101.236529,300,ptc720ls@pt.co.th,
ZS529,S529,PTC-STA-ประโคนชัย2,14.609742,103.087614,300,ptc721pc@pt.co.th,
ZS530,S530,PTC-STA-เพ,12.625497,101.42467,300,ptc722pa@pt.co.th,
ZS531,S531,PTC-STA-สระแก้ว,13.84086,102.045536,300,ptc723sk@pt.co.th,
ZS532,S532,PTC-STA-บางบัวทอง2,13.909495,100.38239,300,ptc724bt@pt.co.th,
ZS533,S533,PTC-STA-บางบ่อ2,13.504553,100.83046,300,ptc725bb@pt.co.th,
ZS534,S534,PTC-STA-ตาคลี,15.2702989,100.364261,300,ptc726tk@pt.co.th,
ZS536,S536,PTC-STA-สันทราย2,18.960767,98.984256,300,ptc728ss@pt.co.th,
ZS537,S537,PTC-STA-คำตากล้า,17.846842,103.753695,300,ptc729kk@pt.co.th,
ZS538,S538,PTC-STA-ปราจีนบุรี3,14.090973,101.370306,300,ptc730pb@pt.co.th,
ZS539,S539,PTC-STA-สวี,10.253875,99.085862,300,ptc731sw@pt.co.th,
ZS540,S540,PTC-STA-บ้านไร่,13.523199,99.856225,300,ptc732br@pt.co.th,
ZS541,S541,PTC-STA-บ้านโป่ง,13.82915,99.87689,300,ptc733bp@pt.co.th,
ZS542,S542,PTC-STA-หางดง2,18.6188108,98.9460918,300,ptc734hd@pt.co.th,
ZS544,S544,PTC-STA-วานรนิวาส2,17.628609,103.752096,300,ptc736wv@pt.co.th,
ZS545,S545,PTC-STA-วารินชำราบ,15.174127,104.857458,300,ptc737wr@pt.co.th,
ZS546,S546,PTC-STA-บ้านค่าย2,12.76615,101.290739,300,ptc738bk@pt.co.th,
ZS547,S547,PTC-STA-เชียงม่วน,18.8874131,100.2852061,300,ptc739cm@pt.co.th,
ZS548,S548,PTC-STA-หนองสูง,16.483409,104.330168,300,ptc740ns@pt.co.th,
ZS549,S549,PTC-STA-หนองหาน,17.363365,103.066544,300,ptc741nh@pt.co.th,
ZS550,S550,PTC-STA-ประเวศ2,13.720854,100.691548,300,ptc742pv@pt.co.th,
ZS551,S551,PTC-STA-พรหมพิราม,17.104213,100.13664,300,ptc743pr@pt.co.th,
ZS552,S552,PTC-STA-เวียงป่าเป้า2,19.338852,99.510403,300,ptc744wp@pt.co.th,
ZS555,S555,PTC-STA-เชียงดาว,19.360976,98.964162,300,ptc747cd@pt.co.th,
ZS556,S556,PTC-STA-กุฉินารายณ์,16.531452,104.056173,300,ptc748kr@pt.co.th,
ZS557,S557,PTC-STA-มัญจาคีรี,16.113333,102.536146,300,ptc749mr@pt.co.th,
ZS558,S558,PTC-STA-บำเหน็จณรงค์,15.466712,101.752588,300,ptc750br@pt.co.th,
ZS559,S559,PTC-STA-หนองบัวระเหว,15.743278,101.766361,300,ptc751nw@pt.co.th,
ZS560,S560,PTC-STA-แปลงยาว,13.639973,101.295313,300,ptc752py@pt.co.th,
ZS562,S562,PTC-STA-กำแพงแสน2,14.013238,100.01124,300,ptc754ks@pt.co.th,
ZS563,S563,PTC-STA-บ้านบัว,14.94495,103.047696,300,ptc755bb@pt.co.th,
ZS564,S564,PTC-STA-สำโรงทาบ,15.027058,103.937935,300,ptc756st@pt.co.th,
ZS566,S566,PTC-STA-บ้านธิ,18.653569,99.127315,300,ptc758bt@pt.co.th,
ZS568,S568,PTC-STA-ท่าพระ,16.332418,102.803455,300,ptc760tp@pt.co.th,
ZS569,S569,PTC-STA-บ่อพลอย,14.2470384,99.5044683,300,ptc761bp@pt.co.th,
ZS570,S570,PTC-STA-ลำปาง3,18.309032,99.513923,300,ptc762lp@pt.co.th,
ZS571,S571,PTC-STA-กำแพงแสน3,14.12697,99.98555,300,ptc763ks@pt.co.th,
ZS574,S574,PTC-STA-เวียง,19.914259,99.8438,300,ptc766wg@pt.co.th,
ZS575,S575,PTC-STA-พาน,19.547183,99.741613,300,ptc767ph@pt.co.th,
ZS576,S576,PTC-STA-แหลมงอบ,12.259485,102.288797,300,ptc768lg@pt.co.th,
ZS577,S577,PTC-STA-บรบือ,16.122321,103.216379,300,ptc769bb@pt.co.th,
ZS578,S578,PTC-STA-หล่มเก่า2,16.993273,101.200915,300,ptc770lk@pt.co.th,
ZS579,S579,PTC-STA-บุรีรัมย์,14.964111,103.129608,300,ptc771br@pt.co.th,
ZS581,S581,PTC-STA-พะเยา2,19.2175475,99.8682617,300,ptc775py@pt.co.th,
ZS582,S582,PTC-STA-แม่อาย,20.038488,99.317818,300,ptc776me@pt.co.th,
ZS583,S583,PTC-STA-ชนบท2,16.049206,102.60237,300,ptc777cb@pt.co.th,
ZS585,S585,PTC-STA-บ่อพลอย2,14.188317,99.479082,300,ptc779bp@pt.co.th,
ZS586,S586,PTC-STA-สระแก้ว2,13.800183,102.12279,300,ptc780sk@pt.co.th,
ZS587,S587,PTC-STA-สงขลา,7.073013,100.636741,300,ptc781sk@pt.co.th,
ZS588,S588,PTC-STA-นครนายก,14.203233,101.206805,300,ptc782ny@pt.co.th,
ZS589,S589,PTC-STA-บ้านนา,14.254326,101.072773,300,ptc783bn@pt.co.th,
ZS590,S590,PTC-STA-บ้านผือ,17.566498,102.672693,300,ptc784bp@pt.co.th,
ZS591,S591,PTC-STA-คูเมือง,15.288925,103.004185,300,ptc785km@pt.co.th,
ZS592,S592,PTC-STA-กงไกรลาศ,16.971608,100.01792,300,ptc786kl@pt.co.th,
ZS593,S593,PTC-STA-กงไกรลาศ2,17.00638,99.931089,300,ptc787kl@pt.co.th,
ZS596,S596,PTC-STA-วัฒนานคร,13.800949,102.340048,300,ptc792wk@pt.co.th,
ZS597,S597,PTC-STA-ขุนทะเล2,9.01232,99.377431,300,ptc793kl@pt.co.th,
ZS598,S598,PTC-STA-สตึก,15.203711,103.214552,300,ptc794st@pt.co.th,
ZS599,S599,PTC-STA-ชัยบาดาล,15.078828,100.984945,300,ptc795cd@pt.co.th,
ZS600,S600,PTC-STA-ท่ายาง2,12.879524,99.843256,300,ptc797ty@pt.co.th,
ZS601,S601,PTC-STA-มุกดาหาร,16.539401,104.716892,300,ptc798mh@pt.co.th,
ZS602,S602,PTC-STA-กระนวน3,16.704182,103.03164,300,ptc799kn@pt.co.th,
ZS604,S604,PTC-STA-หนองเรือ,16.488796,102.390512,300,ptc802nr@pt.co.th,
ZS605,S605,PTC-STA-หนองขาหย่าง,15.364926,99.947091,300,ptc803ny@pt.co.th,
ZS606,S606,PTC-STA-หนองหาน2,17.361172,102.968614,300,ptc804nh@pt.co.th,
ZS607,S607,PTC-STA-บางบาล2,14.34879,100.47096,300,ptc805bb@pt.co.th,
ZS608,S608,PTC-STA-กมลาไสย,16.273321,103.585396,300,ptc806ks@pt.co.th,
ZS609,S609,PTC-STA-สามพราน,13.737132,100.2435,300,ptc807sp@pt.co.th,
ZS610,S610,PTC-STA-พัทลุง,7.537738,100.040874,300,ptc808pl@pt.co.th,
ZS611,S611,PTC-STA-ศรีมหาโพธิ,13.970973,101.515256,300,ptc809sp@pt.co.th,
ZS613,S613,PTC-STA-เชียงใหม่,18.73997,98.9576581,300,ptc811cm@pt.co.th,
ZS614,S614,PTC-STA-ชุมแสง,15.932753,100.30228,300,ptc812cs@pt.co.th,
ZS615,S615,PTC-STA-เชียงราย,19.85997,99.764974,300,ptc813cl@pt.co.th,
ZS616,S616,PTC-STA-อุทุมพรพิสัย,15.089565,104.116493,300,ptc814us@pt.co.th,
ZS617,S617,PTC-STA-จตุรพักตรพิมาน,15.839563,103.557068,300,ptc815cm@pt.co.th,
ZS618,S618,PTC-STA-พรรณานิคม,17.3275709,103.8858373,300,ptc816pk@pt.co.th,
ZS619,S619,PTC-STA-ละหานทราย,14.411367,102.853375,300,ptc817ls@pt.co.th,
ZS620,S620,PTC-STA-หนองบัว,15.865963,100.567582,300,ptc818nb@pt.co.th,
ZS621,S621,PTC-STA-วาปีปทุม,15.846923,103.388904,300,ptc819wt@pt.co.th,
ZS622,S622,PTC-STA-โกสุมพิสัย4,16.278944,102.96108,300,ptc820ks@pt.co.th,
ZS623,S623,PTC-STA-สว่างแดนดิน2,17.468084,103.455214,300,ptc821sd@pt.co.th,
ZS624,S624,PTC-STA-เกษตรวิสัย,15.653959,103.602952,300,ptc822ks@pt.co.th,
ZS625,S625,PTC-STA-จักราช,15.014127,102.424764,300,ptc823cr@pt.co.th,
ZS626,S626,PTC-STA-จตุรพักตรพิมาน2,15.766621,103.566929,300,ptc824cm@pt.co.th,
ZS628,S628,PTC-STA-อุตรดิตถ์2,17.672335,100.147997,300,ptc826ud@pt.co.th,
ZS630,S630,PTC-STA-สันป่าตอง3,18.628511,98.896956,300,ptc828st@pt.co.th,
ZS631,S631,PTC-STA-ท่าขุนราม,16.462744,99.474316,300,ptc829tr@pt.co.th,
ZS632,S632,PTC-STA-ป่าซาง,18.475575,98.825826,300,ptc830ps@pt.co.th,
ZS633,S633,PTC-STA-เลิงนกทา,16.198194,104.509546,300,ptc831lt@pt.co.th,
ZS634,S634,PTC-STA-โคกสำโรง3,15.046346,100.70561,300,ptc832ks@pt.co.th,
ZS635,S635,PTC-STA-ปทุมธานี2,14.017178,100.525216,300,ptc833pt@pt.co.th,
ZS636,S636,PTC-STA-พนัสนิคม4,13.347223,101.271627,300,ptc834pk@pt.co.th,
ZS637,S637,PTC-STA-กู่แก้ว,17.202318,103.11498,300,ptc835kk@pt.co.th,
ZS638,S638,PTC-STA-ริมกก,19.933699,99.844999,300,ptc836rk@pt.co.th,
ZS639,S639,PTC-STA-พัทลุง2,7.557634,100.04671,300,ptc837pl@pt.co.th,
ZS640,S640,PTC-STA-วังสมบูรณ์,13.43436,102.200938,300,ptc838wb@pt.co.th,
ZS641,S641,PTC-STA-บุรีรัมย์2,15.01163,103.133712,300,ptc839br@pt.co.th,
ZS642,S642,PTC-STA-ชัยบาดาล2,15.209089,101.113442,300,ptc840cd@pt.co.th,
ZS643,S643,PTC-STA-หนองวัวซอ,17.295307,102.624586,300,ptc841ns@pt.co.th,
ZS644,S644,PTC-STA-เด่นชัย2,17.975588,100.082861,300,ptc842dc@pt.co.th,
ZS645,S645,PTC-STA-เพชรบุรี4,13.08776,100.009336,300,ptc843pb@pt.co.th,
ZS649,S649,PTC-STA-โนนแดง,15.407732,102.53766,300,ptc848nd@pt.co.th,
ZS650,S650,PTC-STA-กุดรัง,16.053678,102.992085,300,ptc849kr@pt.co.th,
ZS651,S651,PTC-STA-นครราชสีมา3,15.069178,102.120276,300,ptc850nm@pt.co.th,
ZS652,S652,PTC-STA-วังน้ำเขียว,14.518752,101.963403,300,ptc851wk@pt.co.th,
ZS653,S653,PTC-STA-คลองขลุง2,16.16723,99.800449,300,ptc852kk@pt.co.th,
ZS655,S655,PTC-STA-ชัยภูมิ,15.908307,102.125336,300,ptc854cp@pt.co.th,
ZS656,S656,PTC-STA-ประโคนชัย3,14.590586,103.057167,300,ptc856pc@pt.co.th,
ZS657,S657,PTC-STA-เชียงคำ,19.5169853,100.2924628,300,ptc857ck@pt.co.th,
ZS659,S659,PTC-STA-ภาษีเจริญ2,13.741188,100.425997,300,ptc859pl@pt.co.th,
ZS660,S660,PTC-STA-สูงเนิน,14.869842,101.799644,300,ptc860sn@pt.co.th,
ZS661,S661,PTC-STA-ท่าคันโท,16.930906,103.2577439,300,ptc861tt@pt.co.th,
ZS662,S662,PTC-STA-ร้อยเอ็ด4,16.078975,103.646198,300,ptc862la@pt.co.th,
ZS663,S663,PTC-STA-สุรินทร์2,14.984018,103.541227,300,ptc863sr@pt.co.th,
ZS664,S664,PTC-STA-นาหว้า,17.492257,104.099813,300,ptc864nw@pt.co.th,
ZS665,S665,PTC-STA-จัตุรัส3,15.416887,101.833473,300,ptc865cr@pt.co.th,
ZS666,S666,PTC-STA-พนมสารคาม2,13.751404,101.364008,300,ptc866pk@pt.co.th,
ZS667,S667,PTC-STA-จันทบุรี2,13.117912,102.219192,300,ptc867cb@pt.co.th,
ZS668,S668,PTC-STA-เขาชัยสน,7.408543,100.085302,300,ptc868ks@pt.co.th,
ZS670,S670,PTC-STA-โกสุมพิสัย5,16.294541,103.104024,300,ptc870ks@pt.co.th,
ZS671,S671,PTC-STA-แวงใหญ่,15.954334,102.539017,300,ptc871wh@pt.co.th,
ZS672,S672,PTC-STA-หางดง3,18.6991645,98.9010531,300,ptc872hd@pt.co.th,
ZS674,S674,PTC-STA-เพชรบุรี5,13.116758,99.910535,300,ptc874pb@pt.co.th,
ZS675,S675,PTC-STA-ตะพง,12.659571,101.324451,300,ptc875tp@pt.co.th,
ZS677,S677,PTC-STA-เขาย้อย3,13.204556,99.828083,300,ptc877ky@pt.co.th,
ZS678,S678,PTC-STA-โนนดินแดง,14.3319106,102.7555601,300,ptc878nd@pt.co.th,
ZS681,S681,PTC-STA-หนองแสง,17.169624,102.780056,300,ptc881ns@pt.co.th,
ZS682,S682,PTC-STA-บรบือ3,16.04704,103.103382,300,ptc882bb@pt.co.th,
ZS683,S683,PTC-STA-บ่อไร่,12.575662,102.535757,300,ptc883br@pt.co.th,
ZS684,S684,PTC-STA-ผักไห่,14.458082,100.368517,300,ptc884ph@pt.co.th,
ZS685,S685,PTC-STA-ศรีมหาโพธิ2,13.851214,101.554426,300,ptc885sp@pt.co.th,
ZS686,S686,PTC-STA-ละแม,9.759539,99.084412,300,ptc886lm@pt.co.th,
ZS687,S687,PTC-STA-ลาดหลุมแก้ว2,14.054357,100.442998,300,ptc887lk@pt.co.th,
ZS688,S688,PTC-STA-ยโสธร,15.7707871,104.1836471,300,ptc888yt@pt.co.th,
ZS689,S689,PTC-STA-แม่จัน3,20.17245,99.853109,300,ptc889mc@pt.co.th,
ZS690,S690,PTC-STA-บางพูน2,13.978035,100.5889,300,ptc890bp@pt.co.th,
ZS691,S691,PTC-STA-พลับพลาชัย,14.733145,103.172067,300,ptc891pc@pt.co.th,
ZS693,S693,PTC-STA-ลี้,17.994014,98.876468,300,ptc893le@pt.co.th,
ZS694,S694,PTC-STA-กะเฉด,12.663402,101.501488,300,ptc894kc@pt.co.th,
ZS695,S695,PTC-STA-นางรอง3,14.521654,102.748947,300,ptc895nr@pt.co.th,
ZS696,S696,PTC-STA-ท่าม่วง3,13.91142,99.633177,300,ptc896tm@pt.co.th,
ZS699,S699,PTC-STA-บ้านกรวด,14.423893,103.09862,300,ptc899bk@pt.co.th,
ZS701,S701,PTC-STA-ทุ่งตะโก2,10.146138,99.096766,300,ptc912tk@pt.co.th,
ZS702,S702,PTC-STA-บ้านไผ่5,16.061324,102.764211,300,ptc913bp@pt.co.th,
ZS703,S703,PTC-STA-เชียงใหม่2,18.8339996,98.9757691,300,ptc914cm@pt.co.th,
ZS704,S704,PTC-STA-สะเดา,6.65119,100.42825,300,ptc915sd@pt.co.th,
ZS705,S705,PTC-STA-นาแก,16.98608,104.392511,300,ptc916nk@pt.co.th,
ZS706,S706,PTC-STA-ป่าพะยอม,7.844989,99.939187,300,ptc917nk@pt.co.th,
ZS707,S707,PTC-STA-พยัคฆภูมิพิสัย2,15.562857,103.211007,300,ptc918ps@pt.co.th,
ZS708,S708,PTC-STA-พยุหะคีรี2,15.3978689,100.1471987,300,ptc919pr@pt.co.th,
ZS709,S709,PTC-STA-บึงกาฬ3,18.412334,103.524312,300,ptc921bk@pt.co.th,
ZS710,S710,PTC-STA-ศรีสงคราม,17.545973,104.242305,300,ptc922sk@pt.co.th,
ZS711,S711,PTC-STA-พนมไพร,15.68448,104.11144,300,ptc923pp@pt.co.th,
ZS713,S713,PTC-STA-ท่าศาลา,8.666374,99.907209,300,ptc925tl@pt.co.th,
ZS715,S715,PTC-STA-ท่าช้าง,14.760087,100.390649,300,ptc927tc@pt.co.th,
ZS716,S716,PTC-STA-หล่มสัก2,16.812486,101.22857,300,ptc928ls@pt.co.th,
ZS717,S717,PTC-STA-เทพสถิต,15.419129,101.544084,300,ptc929tt@pt.co.th,
ZS718,S718,PTC-STA-ด่านขุนทด,15.336612,101.822559,300,ptc941dt@pt.co.th,
ZS719,S719,PTC-STA-ท่าชนะ2,9.565903,99.135315,300,ptc942tn@pt.co.th,
ZS720,S720,PTC-STA-บางกระทุ่ม,16.571246,100.356825,300,ptc943bt@pt.co.th,
ZS721,S721,PTC-STA-หนองคาย4,17.919865,102.809129,300,ptc944nk@pt.co.th,
ZS722,S722,PTC-STA-เพชรบุรี6,13.127696,99.949618,300,ptc945pb@pt.co.th,
ZS723,S723,PTC-STA-มุกดาหาร3,16.549178,104.654849,300,ptc946mh@pt.co.th,
ZS725,S725,PTC-STA-บางละมุง4,12.933046,100.937392,300,ptc948bl@pt.co.th,
ZS726,S726,PTC-STA-หางดง6,18.694733,98.926353,300,ptc949hd@pt.co.th,
ZS727,S727,PTC-STA-ระโนด,7.7655907,100.3575497,300,ptc951rd@pt.co.th,
ZS728,S728,PTC-STA-กาญจนบุรี,14.115448,99.406102,300,ptc952kb@pt.co.th,
ZS729,S729,PTC-STA-ท่าศาลา2,8.78245,99.911011,300,ptc953tl@pt.co.th,
ZS730,S730,PTC-STA-สุรินทร์3,14.954674,103.528806,300,ptc954sr@pt.co.th,
ZS731,S731,PTC-STA-ศรีเทพ2,15.400156,101.096461,300,ptc955st@pt.co.th,
ZS732,S732,PTC-STA-บางเลน4,13.9708395,100.1633806,300,ptc956bl@pt.co.th,
ZS735,S735,PTC-STA-พระพรหม2,8.333299,99.923823,300,ptc959pp@pt.co.th,
ZS736,S736,PTC-STA-สะพานสูง,13.775199,100.706096,300,ptc971ss@pt.co.th,
ZS737,S737,PTC-STA-กันตัง,7.422139,99.540238,300,ptc972kt@pt.co.th,
ZS738,S738,PTC-STA-ภูกระดึง,16.853288,101.929715,300,ptc973pd@pt.co.th,
ZS739,S739,PTC-STA-คลองท่อม2,7.904376,99.149814,300,ptc974kt@pt.co.th,
ZS740,S740,PTC-STA-มหาสารคาม4,16.189107,103.22445,300,ptc975mk@pt.co.th,
ZS741,S741,PTC-STA-กระบี่2,8.082432,98.914332,300,ptc976kb@pt.co.th,
ZS742,S742,PTC-STA-ตะกั่วทุ่ง2,8.390035,98.446926,300,ptc977tt@pt.co.th,
ZS743,S743,PTC-STA-อู่ทอง2,14.3773311,99.894337,300,ptc978ut@pt.co.th,
ZS744,S744,PTC-STA-เลิงนกทา2,16.29667,104.515771,300,ptc979lt@pt.co.th,
ZS745,S745,PTC-STA-แจ้ห่ม2,18.639945,99.540143,300,ptc980jh@pt.co.th,
ZS746,S746,PTC-STA-ทุ่งสง4,8.090685,99.663004,300,ptc981ts@pt.co.th,
ZS747,S747,PTC-STA-ราษีไศล,15.3599,104.131107,300,ptc982rr@pt.co.th,
ZS748,S748,PTC-STA-สงขลา2,7.134205,100.575004,300,ptc983sk@pt.co.th,
ZS749,S749,PTC-STA-สมุทรสาคร3,13.542068,100.212048,300,ptc984sk@pt.co.th,
ZS750,S750,PTC-STA-หนองวัวซอ2,17.278506,102.607772,300,ptc985ns@pt.co.th,
ZS751,S751,PTC-STA-แม่สอด,16.723559,98.596249,300,ptc986ms@pt.co.th,
ZS752,S752,PTC-STA-แม่สอด2,16.618037,98.608299,300,ptc987ms@pt.co.th,
ZS753,S753,PTC-STA-ปะทิว3,10.864879,99.343316,300,ptc988pt@pt.co.th,
ZS754,S754,PTC-STA-นบพิตำ,8.715365,99.766032,300,ptc989nt@pt.co.th,
ZS755,S755,PTC-STA-ท่าเรือ,14.555987,100.773936,300,ptc01Btr@pt.co.th,
ZS756,S756,PTC-STA-เลย3,17.611125,101.705821,300,ptc02Ble@pt.co.th,
ZS757,S757,PTC-STA-กุฉินารายณ์2,16.544228,104.04079,300,ptc03Bkr@pt.co.th,
ZS758,S758,PTC-STA-ภูเรือ,17.44854,101.34778,300,ptc04Bpr@pt.co.th,
ZS759,S759,PTC-STA-ตะกั่วทุ่ง3,8.275405,98.313029,300,ptc05Btt@pt.co.th,
ZS760,S760,PTC-STA-โนนไทย2,15.186028,102.075294,300,ptc06Bnt@pt.co.th,
ZS761,S761,PTC-STA-อาจสามารถ,15.852707,103.861303,300,ptc07Bam@pt.co.th,
ZS762,S762,PTC-STA-พุนพิน,9.068861,99.100735,300,ptc08Bpp@pt.co.th,
ZS764,S764,PTC-STA-ท่าม่วง4,13.980218,99.626141,300,ptc10Btm@pt.co.th,
ZS766,S766,PTC-STA-บ้านหมี่,14.978452,100.475554,300,ptc12Bbm@pt.co.th,
ZS767,S767,PTC-STA-ชุมพร2,10.500735,99.17928,300,ptc13Bcp@pt.co.th,
ZS768,S768,PTC-STA-บึงสามัคคี,16.183943,99.970069,300,ptc14Bbs@pt.co.th,
ZS769,S769,PTC-STA-นครศรีธรรมราช4,8.39297,99.970989,300,ptc15Bns@pt.co.th,
ZS770,S770,PTC-STA-ท้ายเหมือง,8.378569,98.281129,300,ptc16Btm@pt.co.th,
ZS771,S771,PTC-STA-ประจวบคีรีขันธ์,11.8237281,99.7806433,300,ptc17Bpk@pt.co.th,
ZS772,S772,PTC-STA-เฉลิมพระเกียรตินครราชสีมา,15.005761,102.272554,300,ptc18Bck@pt.co.th,
ZS773,S773,PTC-STA-นครราชสีมา6,14.996291,102.105329,300,ptc19Bnr@pt.co.th,
ZS774,S774,PTC-STA-กาญจนดิษฐ์2,9.141897,99.668469,300,ptc20Bkb@pt.co.th,
ZS775,S775,PTC-STA-พรหมคีรี2,8.515765,99.929242,300,ptc21Bpk@pt.co.th,
ZS776,S776,PTC-STA-ท่าม่วง5,13.879871,99.684569,300,ptc22Btm@pt.co.th,
ZS777,S777,PTC-STA-ตระการพืชผล,15.613315,105.020161,300,ptc23Btp@pt.co.th,
ZS778,S778,PTC-STA-วังวิเศษ,7.689606,99.462058,300,ptc24Bww@pt.co.th,
ZS779,S779,PTC-STA-เสาไห้,14.579796,100.798788,300,ptc25Bsh@pt.co.th,
ZS780,S780,PTC-STA-โนนแดง2,15.4137689,102.4796254,300,ptc26Bnd@pt.co.th,
ZS781,S781,PTC-STA-ศรีนครินทร์2,7.563757,99.917583,300,ptc27Bsn@pt.co.th,
ZS782,S782,PTC-STA-อ่างทอง3,14.604804,100.411358,300,ptc28Bat@pt.co.th,
ZS783,S783,PTC-STA-นครชัยศรี4,13.868987,100.207729,300,ptc29Bnc@pt.co.th,
ZS784,S784,PTC-STA-ฉวาง2,8.382006,99.526947,300,ptc30Bcw@pt.co.th,
ZS785,S785,PTC-STA-จัตุรัส4,15.530959,101.831973,300,ptc31Bcr@pt.co.th,
ZS786,S786,PTC-STA-ป่าซาง2,18.475434,98.932227,300,ptc32Bps@pt.co.th,
ZS787,S787,PTC-STA-สันกำแพง3,18.741376,99.18939,300,ptc33Bsk@pt.co.th,
ZS788,S788,PTC-STA-พัทลุง7,7.582211,100.118198,300,ptc34Bpt@pt.co.th,
ZS790,S790,PTC-STA-กำแพงเพชร,16.473111,99.535021,300,ptc36Bkp@pt.co.th,
ZS791,S791,PTC-STA-น้ำปาด2,17.772291,100.72721,300,ptc37Bnp@pt.co.th,
ZS792,S792,PTC-STA-อุตรดิตถ์4,17.658538,100.175528,300,ptc38Bud@pt.co.th,
ZS793,S793,PTC-STA-วังทอง,16.824816,100.42808,300,ptc39Bwt@pt.co.th,
ZS794,S794,PTC-STA-ท่ายาง3,12.992567,99.905089,300,ptc40Bth@pt.co.th,
ZS795,S795,PTC-STA-ทวีวัฒนา2,13.786362,100.380531,300,ptc41Bth@pt.co.th,
ZS796,S796,PTC-STA-เพชรบูรณ์2,16.434348,101.175644,300,ptc42Bph@pt.co.th,
ZS797,S797,PTC-STA-เชียงขวัญ,16.106904,103.699003,300,ptc43Bch@pt.co.th,
ZS798,S798,PTC-STA-เขาชัยสน3,7.47256,100.073081,300,ptc44Bkh@pt.co.th,
ZS799,S799,PTC-STA-กันทรารมย์2,15.104857,104.640334,300,ptc45Bka@pt.co.th,
ZS800,S800,PTC-STA-ควนกาหลง,6.843129,100.104685,300,ptc46Bkh@pt.co.th,
ZS802,S802,PTC-STA-ตะกั่วทุ่ง,8.266369,98.30163,300,ptc49Bta@pt.co.th,
ZS803,S803,PTC-STA-ชะอำ2,12.805347,99.95805,300,ptc50Bch@pt.co.th,
ZS804,S804,PTC-STA-เลาขวัญ2,14.6099819,99.7692632,300,ptc51Bla@pt.co.th,
ZS805,S805,PTC-STA-บ้านนาสาร3,8.710617,99.353099,300,ptc52Bba@pt.co.th,
ZS806,S806,PTC-STA-คีรีรัฐนิคม,9.028922,98.95464,300,ptc53Bkh@pt.co.th,
ZS807,S807,PTC-STA-สมุทรสาคร5,13.632163,100.364855,300,ptc54Bsa@pt.co.th,
ZS808,S808,PTC-STA-บางแพ2,13.637969,100.018284,300,ptc55Bba@pt.co.th,
ZS809,S809,PTC-STA-ดอนสัก,9.247346,99.700399,300,ptc56Bdo@pt.co.th,
ZS811,S811,PTC-STA-นครศรีธรรมราช6,8.433798,99.925083,300,ptc59Bna@pt.co.th,
ZS812,S812,PTC-STA-บางพลัด3,13.794286,100.50656,300,ptc60Bba@pt.co.th,
ZS813,S813,PTC-STA-นครสวรรค์8,15.712701,100.068758,300,ptc61Bna@pt.co.th,
ZS814,S814,PTC-STA-ไชยา,9.372833,99.208472,300,ptc62Bch@pt.co.th,
ZS815,S815,PTC-STA-วังเหนือ,19.1445803,99.6246678,300,ptc63Bwa@pt.co.th,
ZS818,S818,PTC-STA-บ้านแพ้ว3,13.642093,100.132764,300,ptc66Bba@pt.co.th,
ZS820,S820,PTC-STA-ระนอง,9.749804,98.593956,300,ptc68Bra@pt.co.th,
ZS821,S821,PTC-STA-ปราสาท5,14.6277753,103.24951,300,ptc69Bpr@pt.co.th,
ZS822,S822,PTC-STA-ฉวาง3,8.476679,99.490819,300,ptc70Bch@pt.co.th,
ZS823,S823,PTC-STA-สว่างวีระวงศ์,15.229709,104.977272,300,ptc71Bsa@pt.co.th,
ZS824,S824,PTC-STA-มหาสารคาม3,16.182216,103.310363,300,ptc72Bma@pt.co.th,
ZS825,S825,PTC-STA-บ้านแท่น,16.41753,102.402101,300,ptc73Bba@pt.co.th,
ZS827,S827,PTC-STA-แวงใหญ่2,15.952787,102.538247,300,ptc75Bwa@pt.co.th,
ZS828,S828,PTC-STA-ปากท่อ2,13.372918,99.821575,300,ptc76Bpa@pt.co.th,
ZS829,S829,PTC-STA-บ้านนาสาร2,8.9192762,99.3992684,300,ptc77Bba@pt.co.th,
ZS830,S830,PTC-STA-ลาดหลุมแก้ว3,14.030515,100.381457,300,ptc78Bla@pt.co.th,
ZS831,S831,PTC-STA-ทุ่งเขาหลวง,15.977534,103.848177,300,ptc79Bth@pt.co.th,
ZS832,S832,PTC-STA-หาดใหญ่4,7.072279,100.545913,300,ptc80Bha@pt.co.th,
ZS833,S833,PTC-STA-พิมาย,15.123531,102.515,300,ptc81Bph@pt.co.th,
ZS834,S834,PTC-STA-ลำทับ,8.070946,99.310147,300,ptc82Blu@pt.co.th,
ZS835,S835,PTC-STA-อำนาจเจริญ2,15.862593,104.601196,300,ptc83Bam@pt.co.th,
ZS836,S836,PTC-STA-บ้านคา,13.471883,99.410555,300,ptc84Bba@pt.co.th,
ZS837,S837,PTC-STA-กระทุ่มแบน2,13.654308,100.2675,300,ptc85Bkr@pt.co.th,
ZS838,S838,PTC-STA-บุรีรัมย์6,15.006453,103.110737,300,ptc86Bbu@pt.co.th,
ZS840,S840,PTC-STA-แม่ทะ2,18.134951,99.615731,300,ptc88Bma@pt.co.th,
ZS841,S841,PTC-STA-แม่สรวย2,19.659875,99.546681,300,ptc89Bma@pt.co.th,
ZS844,S844,PTC-STA-พุนพิน2,9.125443,99.201273,300,ptc92Bph@pt.co.th,
ZS845,S845,PTC-STA-ร้องกวาง,18.326948,100.309826,300,ptc93Bro@pt.co.th,
ZS846,S846,PTC-STA-ร้อยเอ็ด6,16.04709,103.663128,300,ptc94Bro@pt.co.th,
ZS847,S847,PTC-STA-ศรีธาตุ2,16.967208,103.273237,300,ptc95Bsi@pt.co.th,
ZS848,S848,PTC-STA-สีคิ้ว2,14.866664,101.697215,300,ptc96Bsi@pt.co.th,
ZS849,S849,PTC-STA-บางคนที,13.468251,99.941815,300,ptc97Bba@pt.co.th,
ZS850,S850,PTC-STA-ดอยสะเก็ด3,18.848024,99.131464,300,ptc98Bdo@pt.co.th,
ZS851,S851,PTC-STA-พาน4,19.571421,99.7803,300,ptc99Bph@pt.co.th,
ZS852,S852,PTC-STA-แม่สาย,20.359243,99.886032,300,ptc01Cma@pt.co.th,
ZS853,S853,PTC-STA-บางบัวทอง4,13.880929,100.433661,300,ptc02Cba@pt.co.th,
ZS854,S854,PTC-STA-ตระการพืชผล2,15.716521,105.02637,300,ptc03Ctr@pt.co.th,
ZS855,S855,PTC-STA-บุ่งคล้า,18.226196,104.032825,300,ptc04Cbu@pt.co.th,
ZS856,S856,PTC-STA-สายไหม2,13.924206,100.683498,300,ptc05Csa@pt.co.th,
ZS857,S857,PTC-STA-ศรีเชียงใหม่2,17.957093,102.569647,300,ptc06Csi@pt.co.th,
ZS858,S858,PTC-STA-งาว2,18.6090696,100.0380955,300,ptc07Cng@pt.co.th,
ZS859,S859,PTC-STA-เกาะคา,18.208738,99.344674,300,ptc08Cko@pt.co.th,
ZS860,S860,PTC-STA-อ่าวลึก3,8.380273,98.741493,300,ptc09Cao@pt.co.th,
ZS861,S861,PTC-STA-ศรีประจันต์3,14.543279,100.176979,300,ptc10Csi@pt.co.th,
ZS862,S862,PTC-STA-ตลิ่งชัน2,13.783449,100.455612,300,ptc11Cta@pt.co.th,
ZS863,S863,PTC-STA-หาดใหญ่5,6.9749944,100.476634,300,ptc12Cha@pt.co.th,
ZS864,S864,PTC-STA-กำแพงเพชร2,16.372996,99.546504,300,ptc13Cka@pt.co.th,
ZS865,S865,PTC-STA-ชาติตระการ,17.272473,100.606533,300,ptc14Cch@pt.co.th,
ZS866,S866,PTC-STA-บางคล้า3,13.6583869,101.1438435,300,ptc15Cba@pt.co.th,
ZS867,S867,PTC-STA-ไพศาลี2,15.601198,100.624302,300,ptc17Cph@pt.co.th,
ZS868,S868,PTC-STA-เวียงสระ2,8.628002,99.353131,300,ptc18Cwi@pt.co.th,
ZS869,S869,PTC-STA-ท่าฉาง,9.311524,99.037822,300,ptc19Cth@pt.co.th,
ZS870,S870,PTC-STA-อ่าวลึก,8.414203,98.756101,300,ptc20Cao@pt.co.th,
ZS871,S871,PTC-STA-สมุทรสาคร6,13.54279,100.244036,300,ptc21Csa@pt.co.th,
ZS872,S872,PTC-STA-ปากเกร็ด,13.889278,100.519641,300,ptc22Cpa@pt.co.th,
ZS873,S873,PTC-STA-ถ้ำพรรณรา,8.407763,99.371472,300,ptc23Cth@pt.co.th,
ZS874,S874,PTC-STA-เชียงราย5,19.698889,99.918627,300,ptc24Cch@pt.co.th,
ZS875,S875,PTC-STA-ลำปลายมาศ3,15.105085,102.83873,300,ptc25Cla@pt.co.th,
ZS878,S878,PTC-STA-ท่ามะกา2,13.868132,99.821572,300,ptc28Cth@pt.co.th,
ZS879,S879,PTC-STA-บางบอน4,13.660313,100.371876,300,ptc29Cba@pt.co.th,
ZS880,S880,PTC-STA-บางบอน3,13.67008,100.405481,300,ptc30Cba@pt.co.th,
ZS881,S881,PTC-STA-ปลายพระยา2,8.4989,98.884104,300,ptc31Cpl@pt.co.th,
ZS884,S884,PTC-STA-เพชรเกษม69,13.694572,100.38022,300,ptc34Cph@pt.co.th,
ZS885,S885,PTC-STA-เรวดี,13.856638,100.501512,300,ptc35Cre@pt.co.th,
ZS886,S886,PTC-STA-พิปูน,8.523263,99.611698,300,ptc36Cph@pt.co.th,
ZS887,S887,PTC-STA-ลาดกระบัง3,13.762515,100.746114,300,ptc37Cla@pt.co.th,
ZS888,S888,PTC-STA-ท่าคันโท2,16.934091,103.243088,300,ptc38Cth@pt.co.th,
ZS889,S889,PTC-STA-ลำลูกกา3,14.00248,100.842406,300,ptc39Cla@pt.co.th,
ZS890,S890,PTC-STA-เคียนซา,8.696191,99.22998,300,ptc40Ckh@pt.co.th,
ZS892,S892,PTC-STA-พรหมพิราม5,17.014457,100.203018,300,ptc42Cph@pt.co.th,
ZS893,S893,PTC-STA-ท่าม่วง6,13.947259,99.641283,300,ptc43Cth@pt.co.th,
ZS894,S894,PTC-STA-โคกสำโรง4,14.970394,100.641876,300,ptc44Ckh@pt.co.th,
ZS895,S895,PTC-STA-ตระการพืชผล3,15.610929,105.027225,300,ptc45Ctr@pt.co.th,
ZS896,S896,PTC-STA-เชียงราย4,19.896639,99.838948,300,ptc46Cch@pt.co.th,
ZS898,S898,PTC-STA-บางละมุง5(ถ.สุขุมวิท กม.93),12.870418,100.903661,300,ptc48Cba@pt.co.th,
ZS899,S899,PTC-STA-เพชรเกษม25,13.721155,100.45948,300,ptc49Cph@pt.co.th,
ZS900,S900,PTC-STA-กาฬสินธุ์3,16.430097,103.494943,300,ptc50Cka@pt.co.th,
ZS901,S901,PTC-STA-บ้านบึง5,13.235452,101.221307,300,ptc51Cba@pt.co.th,
ZS902,S902,PTC-STA-ปราณบุรี2,12.370024,99.887062,300,ptc52Cpr@pt.co.th,
ZS903,S903,PTC-STA-ภูกามยาว,19.212832,99.948468,300,ptc53Cph@pt.co.th,
ZS904,S904,PTC-STA-โชคชัย2(ถ.โชคชัย-โคราช กม.27),14.757293,102.163839,300,ptc54Cch@pt.co.th,
ZS905,S905,PTC-STA-ดอกคำใต้3,19.168496,100.002814,300,ptc55Cdo@pt.co.th,
ZS906,S906,PTC-STA-ท่าตะโก,15.596308,100.340924,300,ptc56Cth@pt.co.th,
ZS907,S907,PTC-STA-ภูเก็ต,7.895728,98.389212,300,ptc57Cph@pt.co.th,
ZS910,S910,PTC-STA-เวียงหนองล่อง4,18.420046,98.709472,300,ptc60Cwi@pt.co.th,
ZS911,S911,PTC-STA-ภาษีเจริญ3(เพชรเกษม48),13.729267,100.434324,300,ptc61Cph@pt.co.th,
ZS912,S912,PTC-STA-กบินทร์บุรี,13.978235,101.821109,300,ptc62Cka@pt.co.th,
ZS913,S913,PTC-STA-นครศรีธรรมราช7,8.459005,99.923498,300,ptc63Cna@pt.co.th,
ZS914,S914,PTC-STA-ฉะเชิงเทรา2,13.687915,101.054413,300,ptc64Cch@pt.co.th,
ZS915,S915,PTC-STA-เขาค้อ2,16.777057,101.014168,300,ptc65Ckh@pt.co.th,
ZS916,S916,PTC-STA-นครศรีธรรมราช8,8.424577,99.855558,300,ptc66Cna@pt.co.th,
ZS917,S917,PTC-STA-เชียงแสน2,20.30496,100.005258,300,ptc67Cch@pt.co.th,
ZS918,S918,PTC-STA-เขมราฐ,15.898308,105.187898,300,ptc68Ckh@pt.co.th,
ZS919,S919,PTC-STA-ถ้ำพรรณรา2,8.412088,99.370891,300,ptc69Cth@pt.co.th,
ZS920,S920,PTC-STA-โชคชัย3(กลางตลาดโชคชัย),14.733239,102.167981,300,ptc70Cch@pt.co.th,
ZS921,S921,PTC-STA-สหัสขันธ์,16.749472,103.642999,300,ptc71Csa@pt.co.th,
ZS922,S922,PTC-STA-เสิงสาง,14.429151,102.469966,300,ptc72Cso@pt.co.th,
ZS923,S923,PTC-STA-ภูเก็ต2,7.828244,98.301547,300,ptc73Cph@pt.co.th,
ZS924,S924,PTC-STA-นครศรีธรรมราช9,8.449156,100.0036,300,ptc74Cna@pt.co.th,
ZS925,S925,PTC-STA-เดชอุดม4,14.762295,105.155758,300,ptc75Cde@pt.co.th,
ZS926,S926,PTC-STA-หนองบัวลำภู,17.245264,102.528328,300,ptc76Cno@pt.co.th,
ZS927,S927,PTC-STA-ทุ่งเสลี่ยม2,17.333521,99.550186,300,ptc77Cth@pt.co.th,
ZS928,S928,PTC-STA-เชียงแสน,20.274304,100.082707,300,ptc78Cch@pt.co.th,
ZS929,S929,PTC-STA-เทิง,19.677101,100.120135,300,ptc79Cth@pt.co.th,
ZS930,S930,PTC-STA-บางบอน5,13.654579,100.391825,300,ptc80Cba@pt.co.th,
ZS931,S931,PTC-STA-บางใหญ่2,13.86199,100.438837,300,ptc81Cba@pt.co.th,
ZS932,S932,PTC-STA-ศรีราชา3,13.123571,101.162516,300,ptc82Csi@pt.co.th,
ZS933,S933,PTC-STA-ศรีมโหสถ,13.9090861,101.4018248,300,ptc83Csi@pt.co.th,
ZS934,S934,PTC-STA-ไชยา2,9.437978,99.152588,300,ptc84Cch@pt.co.th,
ZS935,S935,PTC-STA-โนนสัง,16.928436,102.588222,300,ptc86Cno@pt.co.th,
ZS936,S936,PTC-STA-ท่าใหม่,12.573243,101.915887,300,ptc87Cth@pt.co.th,
ZS937,S937,PTC-STA-บางเขน2(ซอยวัชรพล),13.869267,100.64516,300,ptc88Cba@pt.co.th,
ZS938,S938,PTC-STA-ปากพนัง,8.3362,100.201368,300,ptc89Cpa@pt.co.th,
ZS939,S939,PTC-STA-สิงห์บุรี2,14.88459,100.379882,300,ptc90Csi@pt.co.th,
ZS940,S940,PTC-STA-บ้านแพ้ว4,13.601462,100.145884,300,ptc91Cba@pt.co.th,
ZS941,S941,PTC-STA-พิมาย2,15.213416,102.477394,300,ptc92Cph@pt.co.th,
ZS942,S942,PTC-STA-เต่างอย,16.988858,104.174914,300,ptc93Cta@pt.co.th,
ZS943,S943,PTC-STA-แม่อาย2,20.031849,99.294905,300,ptc94Cma@pt.co.th,
ZS944,S944,PTC-STA-หล่มเก่า3,16.877084,101.172528,300,ptc95Clo@pt.co.th,
ZS945,S945,PTC-STA-สูงเนิน3,14.868898,101.805328,300,ptc97Csu@pt.co.th,
ZS946,S946,PTC-STA-โพธิ์ประทับช้าง,16.359913,100.268825,300,ptc98Cph@pt.co.th,
ZS947,S947,PTC-STA-บางซ้าย,14.241366,100.267582,300,ptc99Cba@pt.co.th,
ZS948,S948,PTC-STA-บางบาล3,14.390069,100.468007,300,ptc01Dba@pt.co.th,
ZS949,S949,PTC-STA-ร้องกวาง2,18.29701,100.279298,300,ptc02Dro@pt.co.th,
ZS951,S951,PTC-STA-พะเยา5,19.098582,99.911717,300,ptc04Dph@pt.co.th,
ZS952,S952,PTC-STA-แพร่4,18.159548,100.17645,300,ptc05Dph@pt.co.th,
ZS953,S953,PTC-STA-บางบัวทอง5,13.920238,100.392689,300,ptc06Dba@pt.co.th,
ZS954,S954,PTC-STA-แม่ออน,18.853769,99.273297,300,ptc07Dma@pt.co.th,
ZS955,S955,PTC-STA-แพร่5,18.252514,100.229065,300,ptc08Dph@pt.co.th,
ZS956,S956,PTC-STA-มุกดาหาร4,16.536668,104.702292,300,ptc09Dmu@pt.co.th,
ZS957,S957,PTC-STA-เชียงยืน4,16.41916,103.077832,300,ptc10Dch@pt.co.th,
ZS958,S958,PTC-STA-ชลบุรี4,13.403355,101.002856,300,ptc11Dch@pt.co.th,
ZS959,S959,PTC-STA-อ่าวลึก4,8.456291,98.737863,300,ptc12Dao@pt.co.th,
ZS960,S960,PTC-STA-ราชบุรี4,13.51515,99.815542,300,ptc13Dra@pt.co.th,
ZS961,S961,PTC-STA-กุมภวาปี7,17.09224,103.002704,300,ptc14Dku@pt.co.th,
ZS962,S962,PTC-STA-เดชอุดม3,14.90149,105.080403,300,ptc15Dde@pt.co.th,
ZS964,S964,PTC-STA-ท่าอุเทน,17.57298,104.596583,300,ptc17Dth@pt.co.th,
ZS965,S965,PTC-STA-บ้านโป่ง4,13.793793,99.743192,300,ptc18Dba@pt.co.th,
ZS966,S966,PTC-STA-ป่าสัก2,18.554928,99.040326,300,ptc19Dpa@pt.co.th,
ZS967,S967,PTC-STA-ขนอม,9.186021,99.8574,300,ptc20Dkh@pt.co.th,
ZS968,S968,PTC-STA-ฉะเชิงเทรา3,13.663964,101.049594,300,ptc21Dch@pt.co.th,
ZS969,S969,PTC-STA-หนองใหญ่2,13.260239,101.317904,300,ptc22Dno@pt.co.th,
ZS970,S970,PTC-STA-พยุหะคีรี3,15.458526,100.145256,300,ptc23Dph@pt.co.th,
ZS971,S971,PTC-STA-พนมสารคาม4,13.765842,101.518848,300,ptc24Dph@pt.co.th,
ZS972,S972,PTC-STA-ลำลูกกา4,13.946408,100.642555,300,ptc25Dla@pt.co.th,
ZS974,S974,PTC-STA-ไพรบึง,14.6818,104.342503,300,ptc27Dph@pt.co.th,
ZS975,S975,PTC-STA-ดำเนินสะดวก,13.567548,99.970232,300,ptc28Dda@pt.co.th,
ZS976,S976,PTC-STA-สะพานสูง2,13.787386,100.691976,300,ptc29Dsa@pt.co.th,
ZS977,S977,PTC-STA-โคกโพธิ์ไชย,16.086186,102.3916,300,ptc30Dkh@pt.co.th,
ZS978,S978,PTC-STA-ดอนเจดีย์,14.691343,99.845537,300,ptc31Ddo@pt.co.th,
ZS979,S979,PTC-STA-มีนบุรี2(ถ.สุวินทวงศ์ ซ.24),13.81396,100.763071,300,ptc32Dmi@pt.co.th,
ZS980,S980,PTC-STA-เดิมบางนางบวช,14.937401,100.082626,300,ptc33Ddo@pt.co.th,
ZS981,S981,PTC-STA-ฉะเชิงเทรา4,13.682767,101.080342,300,ptc34Dch@pt.co.th,
ZS982,S982,PTC-STA-สทิงพระ2,7.502025,100.430299,300,ptc35Dsa@pt.co.th,
ZS983,S983,PTC-STA-บ้านฝาง,16.456932,102.632511,300,ptc36Dba@pt.co.th,
ZS984,S984,PTC-STA-ดอนตาล,16.4050854,104.843234,300,ptc37Ddo@pt.co.th,
ZS985,S985,PTC-STA-พานทอง,13.421037,101.098292,300,ptc38Dph@pt.co.th,
ZS986,S986,PTC-STA-วังสามหมอ4,16.946562,103.440146,300,ptc39Dwa@pt.co.th,
ZS988,S988,PTC-STA-ยางสีสุราช,15.679064,103.111351,300,ptc41Dya@pt.co.th,
ZS989,S989,PTC-STA-คลองลาน,16.114468,99.328075,300,ptc42Dkh@pt.co.th,
ZS990,S990,PTC-STA-ศรีเมืองใหม่2,15.443727,105.297703,300,ptc43Dsi@pt.co.th,
ZS991,S991,PTC-STA-ขาณุวรลักษบุรี2,16.096144,99.888352,300,ptc44Dkh@pt.co.th,
ZS992,S992,PTC-STA-โพธาราม2,13.657847,99.761383,300,ptc45Dph@pt.co.th,
ZS993,S993,PTC-STA-ปราณบุรี3,12.3745761,99.9136505,300,ptc46Dpr@pt.co.th,
ZS994,S994,PTC-STA-เลย4,17.484715,101.746153,300,ptc47Dlo@pt.co.th,
ZS995,S995,PTC-STA-ท่ามะกา3,13.912165,99.770568,300,ptc48Dth@pt.co.th,
ZS996,S996,PTC-STA-นครนายก3,14.206065,101.241672,300,ptc49Dna@pt.co.th,
ZS997,S997,PTC-STA-ภาชี,14.476845,100.743949,300,ptc50Dph@pt.co.th,
ZS998,S998,PTC-STA-บ้านหมอ2,14.64836,100.760175,300,ptc51Dba@pt.co.th,
ZS999,S999,PTC-STA-ตราด,12.251013,102.580809,300,ptc52Dtr@pt.co.th,
ZSA00,SA00,PTC-STA-เมืองสรวง,15.833288,103.7189,300,ptc53Dmu@pt.co.th,
ZSA01,SA01,PTC-STA-เวียงแก่น,20.052454,100.505957,300,ptc54Dwi@pt.co.th,
ZSA02,SA02,PTC-STA-ชุมพร3,10.558783,99.176146,300,ptc55Dch@pt.co.th,
ZSA03,SA03,PTC-STA-หนองบัวลำภู2,17.2779242,102.3123144,300,ptc56Dno@pt.co.th,
ZSA04,SA04,PTC-STA-บางบ่อ3,13.67985,100.89744,300,ptc57Dba@pt.co.th,
ZSA05,SA05,PTC-STA-ราชบุรี5,13.55969,99.781783,300,ptc58Dra@pt.co.th,
ZSA06,SA06,PTC-STA-ราชบุรี6,13.530358,99.793176,300,ptc59Dra@pt.co.th,
ZSA07,SA07,PTC-STA-แม่จัน8,20.251368,99.85581,300,ptc60Dma@pt.co.th,
ZSA08,SA08,PTC-STA-แกลง3,12.750298,101.730956,300,ptc61Dkl@pt.co.th,
ZSA09,SA09,PTC-STA-ตรัง,7.529953,99.642244,300,ptc62Dtr@pt.co.th,
ZSA11,SA11,PTC-STA-สทิงพระ3,7.535209,100.419712,300,ptc64Dsa@pt.co.th,
ZSA12,SA12,PTC-STA-กาฬสินธุ์4,16.550837,103.631311,300,ptc65Dka@pt.co.th,
ZSA13,SA13,PTC-STA-คำม่วง2,16.848683,103.625904,300,ptc66Dkh@pt.co.th,
ZSA14,SA14,PTC-STA-ลำดวน2,14.7242611,103.6686557,300,ptc67Dla@pt.co.th,
ZSA15,SA15,PTC-STA-ละอุ่น,10.184962,98.718748,300,ptc68Dla@pt.co.th,
ZSA16,SA16,PTC-STA-แก้งคร้อ,16.275059,102.357646,300,ptc69Dka@pt.co.th,
ZSA17,SA17,PTC-STA-อุดรธานี,17.323586,102.71294,300,ptc70Dud@pt.co.th,
ZSA18,SA18,PTC-STA-พนมดงรัก,14.431234,103.270577,300,ptc71Dph@pt.co.th,
ZSA19,SA19,PTC-STA-คูเมือง3,15.357371,103.014095,300,ptc72Dkh@pt.co.th,
ZSA20,SA20,PTC-STA-สุวรรณภูมิ3,15.632406,103.785804,300,ptc73Dsu@pt.co.th,
ZSA21,SA21,PTC-STA-พระประแดง(ถ.ปู่เจ้าสำโรง),13.64393,100.588525,300,ptc74Dph@pt.co.th,
ZSA22,SA22,PTC-STA-วัฒนา(ถ.สุขุมวิท ซ.71),13.727354,100.596026,300,ptc75Dwa@pt.co.th,
ZSA23,SA23,PTC-STA-ร้อยเอ็ด7,16.021982,103.64107,300,ptc76Dro@pt.co.th,
ZSA24,SA24,PTC-STA-สมุทรปราการ4,13.598257,100.602222,300,ptc77Dsa@pt.co.th,
ZSA25,SA25,PTC-STA-สวนผึ้ง2,13.545988,99.440634,300,ptc78Dsu@pt.co.th,
ZSA26,SA26,PTC-STA-ทุ่งฝน,17.47874,103.19515,300,ptc79Dth@pt.co.th,
ZSA27,SA27,PTC-STA-หนองเรือ3,16.461363,102.441511,300,ptc80Dno@pt.co.th,
ZSA28,SA28,PTC-STA-พิปูน2,8.586998,99.59728,300,ptc81Dph@pt.co.th,
ZSA29,SA29,PTC-STA-ลำพูน5,18.549816,98.976347,300,ptc82Dla@pt.co.th,
ZSA30,SA30,PTC-STA-บ้านหมี่2,15.087346,100.600398,300,ptc83Dba@pt.co.th,
ZSA31,SA31,PTC-STA-นบพิตำ2,8.641757,99.794658,300,ptc84Dno@pt.co.th,
ZSA32,SA32,PTC-STA-กงหรา,7.458084,99.978623,300,ptc85Dko@pt.co.th,
ZSA34,SA34,PTC-STA-ลอง2,18.064377,99.788219,300,ptc87Dlo@pt.co.th,
ZSA35,SA35,PTC-STA-ตากใบ,6.246551,102.071939,300,ptc88Dta@pt.co.th,
ZSA36,SA36,PTC-STA-กุมภวาปี8,17.122571,102.978363,300,ptc89Dku@pt.co.th,
ZSA37,SA37,PTC-STA-บ้านนาสาร4,8.730407,99.333042,300,ptc90Dba@pt.co.th,
ZSA38,SA38,PTC-STA-โชคชัย5,14.636392,102.206533,300,ptc91Dch@pt.co.th,
ZSA39,SA39,PTC-STA-ท่ามะกา5,13.980373,99.752283,300,ptc92Dth@pt.co.th,
ZSA40,SA40,PTC-STA-ลำพูน4,18.52725,99.017476,300,ptc93Dla@pt.co.th,
ZSA41,SA41,PTC-STA-พนมทวน3,14.179474,99.742964,300,ptc94Dph@pt.co.th,
ZSA43,SA43,PTC-STA-ชุมแพ4,16.575867,102.029061,300,ptc97Dch@pt.co.th,
ZSA45,SA45,PTC-STA-กุดจับ,17.433033,102.510189,300,ptc99Dku@pt.co.th,
ZSA46,SA46,PTC-STA-บรบือ4,16.002001,103.092915,300,ptc01Ebo@pt.co.th,
ZSA47,SA47,PTC-STA-เกาะลันตา,7.801837,99.082603,300,ptc02Eko@pt.co.th,
ZSA48,SA48,PTC-STA-จัตุรัส5,15.578263,101.878372,300,ptc03Ech@pt.co.th,
ZSA49,SA49,PTC-STA-จัตุรัส6,15.392728,101.873293,300,ptc04Ech@pt.co.th,
ZSA52,SA52,PTC-STA-มวกเหล็ก,14.672452,101.199106,300,ptc07Emu@pt.co.th,
ZSA53,SA53,PTC-STA-บ้านลาด2,13.06837,99.946691,300,ptc08Eba@pt.co.th,
ZSA54,SA54,PTC-STA-ตาคลี2,15.268931,100.359254,300,ptc09Eth@pt.co.th,
ZSA55,SA55,PTC-STA-กบินทร์บุรี2,13.774431,101.872069,300,ptc10Eka@pt.co.th,
ZSA56,SA56,PTC-STA-ร่อนพิบูลย์2,8.228123,99.874097,300,ptc11Ero@pt.co.th,
ZSA57,SA57,PTC-STA-สอง3,18.413681,100.182677,300,ptc12Eso@pt.co.th,
ZSA58,SA58,PTC-STA-น้ำยืน,14.486279,105.009805,300,ptc13Ena@pt.co.th,
ZSA59,SA59,PTC-STA-สามชัย,16.86575,103.527881,300,ptc14Esa@pt.co.th,
ZSA60,SA60,PTC-STA-ศรีเชียงใหม่3,17.890919,102.524334,300,ptc15Esi@pt.co.th,
ZSA61,SA61,PTC-STA-เชียงของ,20.049487,100.296167,300,ptc16Ech@pt.co.th,
ZSA62,SA62,PTC-STA-พรหมคีรี3,8.592702,99.804972,300,ptc17Eph@pt.co.th,
ZSA63,SA63,PTC-STA-ท่าหลวง(ลพบุรี),15.066501,101.186511,300,ptc18Eth@pt.co.th,
ZSA64,SA64,PTC-STA-รัตภูมิ,7.152589,100.284695,300,ptc19Era@pt.co.th,
ZSA65,SA65,PTC-STA-กำแพงแสน6,14.06177,99.989489,300,ptc20Eka@pt.co.th,
ZSA66,SA66,PTC-STA-ตระการพืชผล4,15.605752,105.024691,300,ptc21Etr@pt.co.th,
ZSA67,SA67,PTC-STA-นครชัยศรี6,13.775849,100.218215,300,ptc22Ena@pt.co.th,
ZSA68,SA68,PTC-STA-หนองบัวแดง3,16.084742,101.805775,300,ptc23Eno@pt.co.th,
ZSA70,SA70,PTC-STA-มะนัง1,6.997178,99.901925,300,ptc25Ema@pt.co.th,
ZSA71,SA71,PTC-STA-แม่ลาว1,19.802415,99.753651,300,ptc26Ema@pt.co.th,
ZSA72,SA72,PTC-STA-สุพรรณบุรี3,14.475123,100.101681,300,ptc27Esu@pt.co.th,
ZSA73,SA73,PTC-STA-ท่ามะกา4,14.043891,99.785038,300,ptc28Eth@pt.co.th,
ZSA74,SA74,PTC-STA-พิษณุโลก2,16.911044,100.188027,300,ptc29Eph@pt.co.th,
ZSA75,SA75,PTC-STA-ยะหริ่ง1,6.830727,101.389215,300,ptc30Eya@pt.co.th,
ZSA76,SA76,PTC-STA-คลองขลุง3,16.212219,99.70351,300,ptc31Ekh@pt.co.th,
ZSA77,SA77,PTC-STA-ปง1,19.180941,100.278267,300,ptc32Epo@pt.co.th,
ZSA78,SA78,PTC-STA-ปากเกร็ด2,13.901576,100.535931,300,ptc33Epa@pt.co.th,
ZSA79,SA79,PTC-STA-ปทุมรัตต์1,15.583405,103.440888,300,ptc34Epa@pt.co.th,
ZSA80,SA80,PTC-STA-สรรพยา2,15.13974,100.258697,300,ptc35Esa@pt.co.th,
ZSA81,SA81,PTC-STA-เวียงเชียงรุ้ง1,19.981613,100.024731,300,ptc36Ewi@pt.co.th,
ZSA82,SA82,PTC-STA-เวียงเชียงรุ้ง2,20.041829,100.124652,300,ptc37Ewi@pt.co.th,
ZSA83,SA83,PTC-STA-บรรพตพิสัย2,15.96959,100.119168,300,ptc38Eba@pt.co.th,
ZSA84,SA84,PTC-STA-ควนขนุน1,7.784335,100.025137,300,ptc39Ekh@pt.co.th,
ZSA85,SA85,PTC-STA-บ้านแท่น2,16.331579,102.374128,300,ptc40Eba@pt.co.th,
ZSA86,SA86,PTC-STA-ลำทะเมนชัย1,15.357631,102.912009,300,ptc41Ela@pt.co.th,
ZSA88,SA88,PTC-STA-บ้านไผ่6,16.101738,102.733422,300,ptc43Eba@pt.co.th,
ZSA89,SA89,PTC-STA-เดิมบางนางบวช2,14.80258,100.1127,300,ptc44Edo@pt.co.th,
ZSA90,SA90,PTC-STA-นาดี1,14.137016,101.876971,300,ptc45Ena@pt.co.th,
ZSA92,SA92,PTC-STA-เดิมบางนางบวช3,14.806321,100.115453,300,ptc47Edo@pt.co.th,
ZSA93,SA93,PTC-STA-สุวรรณภูมิ5,15.608708,103.820247,300,ptc48Esu@pt.co.th,
ZSA94,SA94,PTC-STA-เด่นชัย3,17.970541,100.06836,300,ptc49Ede@pt.co.th,
ZSA95,SA95,PTC-STA-อุตรดิตถ์3,17.668856,100.110953,300,ptc50Eut@pt.co.th,
ZSA96,SA96,PTC-STA-ฝาง3,19.936669,99.196357,300,ptc52Efa@pt.co.th,
ZSA97,SA97,PTC-STA-ท่าหลวง2(ลพบุรี),15.06993,101.112097,300,ptc53Eth@pt.co.th,
ZSA98,SA98,PTC-STA-ท่ายาง4,12.970751,99.883247,300,ptc54Eth@pt.co.th,
ZSA99,SA99,PTC-STA-ทองแสนขัน2,17.456421,100.346155,300,ptc55Eth@pt.co.th,
ZSB01,SB01,PTC-STA-สีคิ้ว3,14.866336,101.715064,300,ptc57Esi@pt.co.th,
ZSB02,SB02,PTC-STA-แวงน้อย2,15.796082,102.44659,300,ptc58Ewa@pt.co.th,
ZSB03,SB03,PTC-STA-คลองลาน2,16.208402,99.334441,300,ptc59Ekh@pt.co.th,
ZSB05,SB05,PTC-STA-ภูเวียง2,16.655256,102.385067,300,ptc61Eph@pt.co.th,
ZSB07,SB07,PTC-STA-แม่พริก1,17.511367,99.159673,300,ptc63Ema@pt.co.th,
ZSB08,SB08,PTC-STA-ขลุง2,12.393657,102.361982,300,ptc64Ekh@pt.co.th,
ZSB09,SB09,PTC-STA-คลองใหญ่1,11.734433,102.903349,300,ptc65Ekh@pt.co.th,
ZSB10,SB10,PTC-STA-ภูซาง1,19.611031,100.337232,300,ptc66Eph@pt.co.th,
ZSB11,SB11,PTC-STA-ลำลูกกา5,13.960935,100.892894,300,ptc67Ela@pt.co.th,
ZSB12,SB12,PTC-STA-ยางตลาด4,16.390262,103.354136,300,ptc68Eya@pt.co.th,
ZSB13,SB13,PTC-STA-ระโนด2,7.783581,100.345803,300,ptc69Era@pt.co.th,
ZSB14,SB14,PTC-STA-ปากคาด1,18.259156,103.303781,300,ptc70Epa@pt.co.th,
ZSB15,SB15,PTC-STA-ลำปาง6,18.497989,99.471973,300,ptc71Ela@pt.co.th,
ZSB16,SB16,PTC-STA-กบินทร์บุรี3,13.95048,101.715733,300,ptc72Eka@pt.co.th,
ZSB17,SB17,PTC-STA-ฟากท่า1,17.9963511,100.8760477,300,ptc73Efa@pt.co.th,
ZSB18,SB18,PTC-STA-องครักษ์1,13.971342,100.962226,300,ptc74Eon@pt.co.th,
ZSB19,SB19,PTC-STA-หล่มเก่า4,16.869872,101.225725,300,ptc75Elo@pt.co.th,
ZSB20,SB20,PTC-STA-พาน5,19.643096,99.863456,300,ptc76Eph@pt.co.th,
ZSB21,SB21,PTC-STA-แม่ริม3,19.0124,98.9448,300,ptc77Ema@pt.co.th,
ZSB22,SB22,PTC-STA-โชคชัย4(ถ.โชคชัย-เดชอุดม กม.54),14.742106,102.174999,300,ptc78Ech@pt.co.th,
ZSB23,SB23,PTC-STA-ภูซาง2,19.576374,100.330153,300,ptc79Eph@pt.co.th,
ZSB24,SB24,PTC-STA-นาทวี1,6.760063,100.702536,300,ptc80Ena@pt.co.th,
ZSB25,SB25,PTC-STA-เชียงยืน5,16.439616,103.046228,300,ptc81Ech@pt.co.th,
ZSB26,SB26,PTC-STA-ชุมพร4,10.405717,99.127952,300,ptc82Ech@pt.co.th,
ZSB27,SB27,PTC-STA-เซกา6,17.915431,103.958781,300,ptc83Ese@pt.co.th,
ZSB28,SB28,PTC-STA-บางบาล4,14.328073,100.47681,300,ptc84Eba@pt.co.th,
ZSB29,SB29,PTC-STA-บ้านแพง1,17.780094,104.242595,300,ptc85Eba@pt.co.th,
ZSB30,SB30,PTC-STA-เขวาสินรินทร์1,15.065621,103.57718,300,ptc86Ekh@pt.co.th,
ZSB31,SB31,PTC-STA-บรรพตพิสัย1,15.864565,99.915505,300,ptc87Eba@pt.co.th,
ZSB32,SB32,PTC-STA-เลิงนกทา3,16.14098,104.590956,300,ptc88Elo@pt.co.th,
ZSB33,SB33,PTC-STA-พนมไพร2,15.79103,104.099252,300,ptc89Eph@pt.co.th,
